temple,instructionrooms,sealingrooms,baptismrooms,squarefootage,acreage,stakes,districts,all_units,elevation_ft,tower_spire,att_tower_spire,angelmoroni,announcement,groundbreaking,dedication,location,status,date,templeOrgId,templeNameId,city,stateRegion,country,sortDate,type,lat,long,prophet,interval,prophet_start,prophet_end
Aba Nigeria Temple,2,2,1,11500,6.3,68,15,83,192.2,1,Attached,Yes,2000-04-02,2002-02-23,2005-08-07,"Aba, Abia, Nigeria",OPERATING,7 August 2005,43202,aba-nigeria-temple,Aba, Abia,Nigeria,"August 7, 2005",NA,5.1128008,7.3651376,Gordon B. Hinckley,1995-03-12 UTC--2008-01-27 UTC,1995-03-12T00:00:00Z,2008-01-27T00:00:00Z
Abidjan Ivory Coast Temple,NA,NA,NA,NA,0.55,NA,NA,NA,173.1,1,Attached,Yes,2015-04-05,2018-11-08,NA,"Abidjan, Ivory Coast",CONSTRUCTION,Construction,4069710,abidjan-ivory-coast-temple,Abidjan,,Ivory Coast,,NA,5.320357,-4.016107,Thomas S. Monson,2008-02-03 UTC--2018-01-02 UTC,2008-02-03T00:00:00Z,2018-01-02T00:00:00Z
Accra Ghana Temple,2,2,1,17500,6,67,30,97,131.8,1,Attached,Yes,1998-02-16,2001-11-16,2004-01-11,"Accra, Greater Accra, Ghana",OPERATING,11 January 2004,36549,accra-ghana-temple,Accra, Greater Accra,Ghana,"January 11, 2004",NA,5.5571096,-0.2012376,Gordon B. Hinckley,1995-03-12 UTC--2008-01-27 UTC,1995-03-12T00:00:00Z,2008-01-27T00:00:00Z
Adelaide Australia Temple,2,2,1,10700,6.94,3,1,4,137.7,1,Attached,Yes,1999-03-17,1999-05-29,2000-06-15,"Marden, South Australia, Australia",OPERATING,15 June 2000,38298,adelaide-australia-temple,Marden, South Australia,Australia,"June 15, 2000",NA,-34.8925643,138.6347392,Gordon B. Hinckley,1995-03-12 UTC--2008-01-27 UTC,1995-03-12T00:00:00Z,2008-01-27T00:00:00Z
Alabang Philippines Temple,NA,NA,NA,NA,2.6,NA,NA,NA,57.5,1,Attached,No,2017-04-02,2020-06-04,NA,"Manila, Philippines",CONSTRUCTION,Construction,4098472,alabang-philippines-temple,Manila,,Philippines,,NA,14.5813098,120.9761612,Thomas S. Monson,2008-02-03 UTC--2018-01-02 UTC,2008-02-03T00:00:00Z,2018-01-02T00:00:00Z
Albuquerque New Mexico Temple,2,3,1,34245,8.5,14,0,14,NA,1,Attached,Yes,1997-04-04,1998-06-20,2000-03-05,"Albuquerque, New Mexico, United States",OPERATING,5 March 2000,36550,albuquerque-new-mexico-temple,Albuquerque, New Mexico,United States,"March 5, 2000",NA,35.0841034,-106.650985,Gordon B. Hinckley,1995-03-12 UTC--2008-01-27 UTC,1995-03-12T00:00:00Z,2008-01-27T00:00:00Z
Anchorage Alaska Temple,2,1,1,11937,5.4,9,0,9,205.1,1,Attached,Yes,1997-10-04,1998-04-17,1999-01-09,"Anchorage, Alaska, United States",OPERATING,9 January 1999,36551,anchorage-alaska-temple,Anchorage, Alaska,United States,"January 9, 1999",NA,61.2163129,-149.894852,Gordon B. Hinckley,1995-03-12 UTC--2008-01-27 UTC,1995-03-12T00:00:00Z,2008-01-27T00:00:00Z
Antofagasta Chile Temple,NA,NA,NA,23000,1.9,NA,NA,NA,66.5,1,Attached,No,2019-04-07,2020-11-27,NA,"Antofagasta, Chile",CONSTRUCTION,Construction,4119596,antofagasta-chile-temple,Antofagasta,,Chile,,NA,-23.6463741,-70.3980033,Russell M. Nelson,2018-01-14 UTC--2023-07-15 UTC,2018-01-14T00:00:00Z,2023-07-15T00:00:00Z
Apia Samoa Temple,2,2,1,18691,2,25,0,25,36.6,1,Attached,Yes,1977-10-15,1981-02-19,1983-08-05,"Apia, Pesega, Samoa",OPERATING,5 August 1983,28,apia-samoa-temple,Apia, Pesega,Samoa,"August 5, 1983",NA,-13.8344639,-171.7649144,Spencer W. Kimball,1973-12-30 UTC--1985-11-05 UTC,1973-12-30T00:00:00Z,1985-11-05T00:00:00Z
Arequipa Peru Temple,2,2,1,26969,7.91,21,5,26,NA,1,Attached,Yes,2012-10-06,2017-03-04,2019-12-15,"Arequipa, Peru",OPERATING,15 December 2019,4017570,arequipa-peru-temple,Arequipa,,Peru,"December 15, 2019",NA,-16.3988667,-71.5369607,Thomas S. Monson,2008-02-03 UTC--2018-01-02 UTC,2008-02-03T00:00:00Z,2018-01-02T00:00:00Z
Asunción Paraguay Temple,2,2,1,11906,1.13,16,15,31,356.3,1,Attached,Yes,2000-04-02,2001-02-03,2002-05-19,"Asunción, Alto Paraguay, Paraguay",OPERATING,19 May 2002,43204,asuncion-paraguay-temple,Asunción, Alto Paraguay,Paraguay,"May 19, 2002",NA,-25.2800459,-57.6343814,Gordon B. Hinckley,1995-03-12 UTC--2008-01-27 UTC,1995-03-12T00:00:00Z,2008-01-27T00:00:00Z
Atlanta Georgia Temple,4,4,1,34500,9.6,17,0,17,NA,1,Attached,Yes,1980-04-02,1981-03-07,1983-06-01,"Sandy Springs, Georgia, United States",OPERATING,1 June 1983,29,atlanta-georgia-temple,Sandy Springs, Georgia,United States,"June 1, 1983",NA,33.9242688,-84.3785379,Spencer W. Kimball,1973-12-30 UTC--1985-11-05 UTC,1973-12-30T00:00:00Z,1985-11-05T00:00:00Z
Auckland New Zealand Temple,4,3,1,NA,NA,NA,NA,NA,196.9,1,Attached,No,2018-10-07,2020-06-13,NA,"Auckland, New Zealand",CONSTRUCTION,Construction,4114417,auckland-new-zealand-temple,Auckland,,New Zealand,,NA,-36.852095,174.7631803,Russell M. Nelson,2018-01-14 UTC--2023-07-15 UTC,2018-01-14T00:00:00Z,2023-07-15T00:00:00Z
Bacolod Philippines Temple,2,2,1,26700,12.3,NA,NA,NA,93.1,1,Attached,No,2019-10-05,2021-12-11,NA,"Lanao Del Norte, Philippines",CONSTRUCTION,Construction,4124794,bacolod-philippines-temple,Lanao Del Norte,,Philippines,,NA,NA,NA,Russell M. Nelson,2018-01-14 UTC--2023-07-15 UTC,2018-01-14T00:00:00Z,2023-07-15T00:00:00Z
Bahía Blanca Argentina Temple,2,2,1,19000,8.14,NA,NA,NA,134.1,1,Attached,No,2020-04-05,2022-04-09,NA,Location Not Available,CONSTRUCTION,Construction,4130710,bahia-blanca-argentina-temple,,,International,,International,NA,NA,Russell M. Nelson,2018-01-14 UTC--2023-07-15 UTC,2018-01-14T00:00:00Z,2023-07-15T00:00:00Z
Bangkok Thailand Temple,NA,NA,NA,44405,1.75,NA,NA,NA,12,9,Attached,No,2015-04-05,2019-01-26,2023-10-22,"Bangkok, Thailand",CONSTRUCTION,Construction,4069712,bangkok-thailand-temple,Bangkok,,Thailand,,NA,13.7524938,100.4935089,Thomas S. Monson,2008-02-03 UTC--2018-01-02 UTC,2008-02-03T00:00:00Z,2018-01-02T00:00:00Z
Barranquilla Colombia Temple,2,1,1,25349,5.93,7,2,9,174.1,1,Attached,Yes,2011-10-01,2016-02-20,2018-12-09,"Barranquilla, Colombia",OPERATING,9 December 2018,4012420,barranquilla-colombia-temple,Barranquilla,,Colombia,"December 9, 2018",NA,10.9938698,-74.7927177,Thomas S. Monson,2008-02-03 UTC--2018-01-02 UTC,2008-02-03T00:00:00Z,2018-01-02T00:00:00Z
Baton Rouge Louisiana Temple,2,2,1,10890,6.3,9,0,9,18,1,Attached,Yes,1998-10-14,1999-05-08,2000-07-16,"Baton Rouge, Louisiana, United States",OPERATING,16 July 2000,36984,baton-rouge-louisiana-temple,Baton Rouge, Louisiana,United States,"July 16, 2000",NA,30.4494155,-91.1869659,Gordon B. Hinckley,1995-03-12 UTC--2008-01-27 UTC,1995-03-12T00:00:00Z,2008-01-27T00:00:00Z
Belém Brazil Temple,2,2,1,28675,6.7,10,2,12,39.9,1,Attached,Yes,2016-04-03,2019-08-17,2022-11-20,Belém Brazil,OPERATING,20 November 2022,4086055,belem-brazil-temple,Belém,,Brasilië,"November 20, 2022",NA,-1.45056,-48.4682453,Thomas S. Monson,2008-02-03 UTC--2018-01-02 UTC,2008-02-03T00:00:00Z,2018-01-02T00:00:00Z
Belo Horizonte Brazil Temple,2,2,1,27000,11.8,NA,NA,NA,NA,1,Attached,No,2021-04-04,2023-06-17,NA,Location Not Available,ANNOUNCED,Announced,4138357,belo-horizonte-brazil-temple,,,International,,International,NA,NA,Russell M. Nelson,2018-01-14 UTC--2023-07-15 UTC,2018-01-14T00:00:00Z,2023-07-15T00:00:00Z
Bengaluru India Temple,NA,NA,NA,40000,1.62,NA,NA,NA,NA,5,Attached,No,2018-04-01,2020-12-02,NA,"Bangalore, India",CONSTRUCTION,Construction,4108671,bengaluru-india-temple,Bangalore,,India,,NA,12.9767936,77.590082,Russell M. Nelson,2018-01-14 UTC--2023-07-15 UTC,2018-01-14T00:00:00Z,2023-07-15T00:00:00Z
Bentonville Arkansas Temple,2,2,1,28472,18.62,NA,NA,NA,NA,1,Attached,No,2019-10-05,2020-11-07,2023-09-17,"Bentonville, Arkansas, United States",CONSTRUCTION,Construction,4124793,bentonville-arkansas-temple,Bentonville, Arkansas,United States,,NA,36.3728538,-94.2088172,Russell M. Nelson,2018-01-14 UTC--2023-07-15 UTC,2018-01-14T00:00:00Z,2023-07-15T00:00:00Z
Bern Switzerland Temple,4,7,1,35546,7,8,1,9,NA,1,Attached,Yes,1952-07-01,1953-08-05,1955-09-11,"Zollikofen, Bern, Switzerland",OPERATING,11 September 1955,52,bern-switzerland-temple,Zollikofen, Bern,Switzerland,"September 11, 1955",NA,46.9959463,7.4576417,David O. McKay,1951-04-09 UTC--1970-01-18 UTC,1951-04-09T00:00:00Z,1970-01-18T00:00:00Z
Billings Montana Temple,2,3,1,33800,10,10,0,10,NA,1,Attached,Yes,1996-08-30,1998-03-30,1999-11-20,"Billings, Montana, United States",OPERATING,20 November 1999,58,billings-montana-temple,Billings, Montana,United States,"November 20, 1999",NA,45.7874957,-108.49607,Gordon B. Hinckley,1995-03-12 UTC--2008-01-27 UTC,1995-03-12T00:00:00Z,2008-01-27T00:00:00Z
Birmingham Alabama Temple,2,2,1,10700,5.6,10,0,10,662,1,Attached,Yes,1998-09-11,1999-10-09,2000-09-03,"Gardendale, Alabama, United States",OPERATING,3 September 2000,36985,birmingham-alabama-temple,Gardendale, Alabama,United States,"September 3, 2000",NA,33.6601033,-86.8127702,Gordon B. Hinckley,1995-03-12 UTC--2008-01-27 UTC,1995-03-12T00:00:00Z,2008-01-27T00:00:00Z
Bismarck North Dakota Temple,2,2,1,10700,1.6,4,0,4,NA,1,Attached,Yes,1998-07-29,1998-10-17,1999-09-19,"Bismarck, North Dakota, United States",OPERATING,19 September 1999,36552,bismarck-north-dakota-temple,Bismarck, North Dakota,United States,"September 19, 1999",NA,46.808327,-100.783739,Gordon B. Hinckley,1995-03-12 UTC--2008-01-27 UTC,1995-03-12T00:00:00Z,2008-01-27T00:00:00Z
Bogotá Colombia Temple,4,3,1,53500,3.71,22,7,29,NA,1,Attached,Yes,1984-04-07,1993-06-26,1999-04-24,"Bogotá, Distrito Capital, Colombia",OPERATING,24 April 1999,31,bogota-colombia-temple,Bogotá, Distrito Capital,Colombia,"April 24, 1999",NA,4.6529539,-74.0835643,Spencer W. Kimball,1973-12-30 UTC--1985-11-05 UTC,1973-12-30T00:00:00Z,1985-11-05T00:00:00Z
Boise Idaho Temple,4,4,1,35868,4.83,16,0,16,NA,6,Detached,Yes,1982-03-31,1982-12-18,1984-05-25,"Boise, Idaho, United States",OPERATING,25 May 1984,23,boise-idaho-temple,Boise, Idaho,United States,"May 25, 1984",NA,43.6166163,-116.200886,Spencer W. Kimball,1973-12-30 UTC--1985-11-05 UTC,1973-12-30T00:00:00Z,1985-11-05T00:00:00Z
Boston Massachusetts Temple,4,4,1,69600,8,13,0,13,331.2,1,Attached,Yes,1995-09-30,1997-06-13,2000-10-01,"Belmont, Massachusetts, United States",OPERATING,1 October 2000,17,boston-massachusetts-temple,Belmont, Massachusetts,United States,"October 1, 2000",NA,37.5164926,-122.2941914,Gordon B. Hinckley,1995-03-12 UTC--2008-01-27 UTC,1995-03-12T00:00:00Z,2008-01-27T00:00:00Z
Bountiful Utah Temple,4,8,1,104000,9,51,0,51,NA,1,Attached,Yes,1990-02-02,1992-05-02,1995-01-08,"Bountiful, Utah, United States",OPERATING,8 January 1995,32,bountiful-utah-temple,Bountiful, Utah,United States,"January 8, 1995",NA,40.8894611,-111.8804817,Ezra Taft Benson,1985-11-10 UTC--1994-05-30 UTC,1985-11-10T00:00:00Z,1994-05-30T00:00:00Z
Brasília Brazil Temple,2,2,1,25000,6,NA,NA,NA,NA,1,Attached,No,2017-04-02,2020-09-26,2023-09-17,"Brasilia, Brazil",CONSTRUCTION,Construction,4098471,brasilia-brazil-temple,Brasilia,,Brazil,,NA,-15.7934036,-47.8823172,Thomas S. Monson,2008-02-03 UTC--2018-01-02 UTC,2008-02-03T00:00:00Z,2018-01-02T00:00:00Z
Brigham City Utah Temple,2,3,1,36000,3.14,13,0,13,NA,2,Attached,Yes,2009-10-03,2010-07-31,2012-09-23,"Brigham City, Utah, United States",OPERATING,23 September 2012,4007349,brigham-city-utah-temple,Brigham City, Utah,United States,"September 23, 2012",NA,41.5110434,-112.0154991,Thomas S. Monson,2008-02-03 UTC--2018-01-02 UTC,2008-02-03T00:00:00Z,2018-01-02T00:00:00Z
Brisbane Australia Temple,2,2,1,10700,0.86,12,1,13,76.5,1,Attached,Yes,1998-07-20,2001-05-26,2003-06-15,"Kangaroo Point, Queensland, Australia",OPERATING,15 June 2003,36553,brisbane-australia-temple,Kangaroo Point, Queensland,Australia,"June 15, 2003",NA,-27.473864,153.0367846517436,Gordon B. Hinckley,1995-03-12 UTC--2008-01-27 UTC,1995-03-12T00:00:00Z,2008-01-27T00:00:00Z
Buenos Aires Argentina Temple,4,3,1,30659,3.73,47,12,59,42.9,6,Detached,Yes,1980-04-02,1983-04-20,1986-01-17,"Ciudad Evita, Buenos Aires, Argentina",OPERATING,17 January 1986,30,buenos-aires-argentina-temple,Ciudad Evita, Buenos Aires,Argentina,"January 17, 1986",NA,-34.7176772,-58.5295556,Spencer W. Kimball,1973-12-30 UTC--1985-11-05 UTC,1973-12-30T00:00:00Z,1985-11-05T00:00:00Z
Burley Idaho Temple,4,3,1,38600,10.1,NA,NA,NA,NA,1,Attached,No,2021-04-04,2022-06-04,NA,Location Not Available,CONSTRUCTION,Construction,4138365,burley-idaho-temple,,,United States,,United States,39.7837304,-100.445882,Russell M. Nelson,2018-01-14 UTC--2023-07-15 UTC,2018-01-14T00:00:00Z,2023-07-15T00:00:00Z
Calgary Alberta Temple,2,3,1,33000,10.17,8,0,8,NA,1,Attached,Yes,2008-10-04,2010-05-15,2012-10-28,"Calgary, Alberta, Canada",OPERATING,28 October 2012,4005411,calgary-alberta-temple,Calgary, Alberta,Canada,"October 28, 2012",NA,51.0456064,-114.0575418,Thomas S. Monson,2008-02-03 UTC--2018-01-02 UTC,2008-02-03T00:00:00Z,2018-01-02T00:00:00Z
Campinas Brazil Temple,4,3,1,48100,6.18,67,17,84,NA,1,Attached,Yes,1997-04-03,1998-05-01,2002-05-17,"Campinas, Sao Paulo, Brazil",OPERATING,17 May 2002,36554,campinas-brazil-temple,Campinas, Sao Paulo,Brazil,"May 17, 2002",NA,-22.9056391,-47.059564,Gordon B. Hinckley,1995-03-12 UTC--2008-01-27 UTC,1995-03-12T00:00:00Z,2008-01-27T00:00:00Z
Caracas Venezuela Temple,2,2,1,15332,0.5,33,6,39,NA,1,Attached,Yes,1995-09-30,1999-01-10,2000-08-20,"Caracas, Dependencias Federales, Venezuela",OPERATING,20 August 2000,68,caracas-venezuela-temple,Caracas, Dependencias Federales,Venezuela,"August 20, 2000",NA,10.5060934,-66.9146008,Gordon B. Hinckley,1995-03-12 UTC--2008-01-27 UTC,1995-03-12T00:00:00Z,2008-01-27T00:00:00Z
Cardston Alberta Temple,4,5,1,88562,10,13,0,13,NA,1,Attached,No,1913-06-27,1913-11-09,1923-08-26,"Cardston, Alberta, Canada",OPERATING,26 August 1923,21,cardston-alberta-temple,Cardston, Alberta,Canada,"August 26, 1923",NA,49.2001157,-113.3165704,Joseph F. Smith,1901-10-17 UTC--1918-11-19 UTC,1901-10-17T00:00:00Z,1918-11-19T00:00:00Z
Casper Wyoming Temple,1,1,1,10000,9.5,NA,NA,NA,NA,1,Attached,No,2021-04-04,2021-10-09,NA,"Casper, Wyoming, United States",CONSTRUCTION,Construction,4138362,casper-wyoming-temple,Casper, Wyoming,United States,,NA,42.8501191,-106.325138,Russell M. Nelson,2018-01-14 UTC--2023-07-15 UTC,2018-01-14T00:00:00Z,2023-07-15T00:00:00Z
Cebu City Philippines Temple,2,2,1,29556,11.6,41,30,71,194.8,1,Attached,Yes,2006-04-18,2007-11-14,2010-06-13,"Cebu City, Cebu, Philippines",OPERATING,13 June 2010,77199,cebu-city-philippines-temple,Cebu City, Cebu,Philippines,"June 13, 2010",NA,10.2931062,123.9020773,Gordon B. Hinckley,1995-03-12 UTC--2008-01-27 UTC,1995-03-12T00:00:00Z,2008-01-27T00:00:00Z
Cedar City Utah Temple,2,3,1,42657,9.5,17,0,17,NA,1,Attached,Yes,2013-04-06,2015-08-08,2017-12-10,"Cedar City, Utah, United States",OPERATING,10 December 2017,4028590,cedar-city-utah-temple,Cedar City, Utah,United States,"December 10, 2017",NA,37.6774238,-113.061827,Thomas S. Monson,2008-02-03 UTC--2018-01-02 UTC,2008-02-03T00:00:00Z,2018-01-02T00:00:00Z
Chicago Illinois Temple,5,3,1,37062,13,13,0,13,685.4,6,Detached,Yes,1981-04-01,1983-08-13,1985-08-09,"Glenview, Illinois, United States",OPERATING,9 August 1985,24,chicago-illinois-temple,Glenview, Illinois,United States,"August 9, 1985",NA,38.3084193,-85.6505526,Spencer W. Kimball,1973-12-30 UTC--1985-11-05 UTC,1973-12-30T00:00:00Z,1985-11-05T00:00:00Z
Ciudad Juárez Mexico Temple,2,2,1,10700,1.64,12,0,12,NA,1,Attached,Yes,1998-05-07,1999-01-09,2000-02-26,"Ciudad Juárez, Chihuahua, Mexico",OPERATING,26 February 2000,36555,ciudad-juarez-mexico-temple,Ciudad Juárez, Chihuahua,Mexico,"February 26, 2000",NA,31.7372575,-106.4856559,Gordon B. Hinckley,1995-03-12 UTC--2008-01-27 UTC,1995-03-12T00:00:00Z,2008-01-27T00:00:00Z
Cobán Guatemala Temple,1,1,1,8800,5.4,NA,NA,NA,NA,1,Attached,No,2019-10-05,2020-11-14,NA,"Coban, Guatemala",CONSTRUCTION,Construction,4124796,coban-guatemala-temple,Coban,,Guatemala,,NA,15.4702001,-90.3735065,Russell M. Nelson,2018-01-14 UTC--2023-07-15 UTC,2018-01-14T00:00:00Z,2023-07-15T00:00:00Z
Cochabamba Bolivia Temple,2,3,1,33302,6.67,33,8,41,NA,5,Attached,Yes,1995-01-13,1996-11-10,2000-04-30,"Alto Queru Queru, Cochabamba, Bolivia",OPERATING,30 April 2000,56,cochabamba-bolivia-temple,Alto Queru Queru, Cochabamba,Bolivia,"April 30, 2000",NA,-17.361064,-66.1517408,Howard W. Hunter,1994-06-05 UTC--1995-03-03 UTC,1994-06-05T00:00:00Z,1995-03-03T00:00:00Z
Colonia Juárez Chihuahua Mexico Temple,1,1,1,6800,2.56,2,4,6,NA,1,Attached,Yes,1997-10-04,1998-03-07,1999-03-06,"Colonia Juárez, Chihuahua, Mexico",OPERATING,6 March 1999,36556,colonia-juarez-chihuahua-mexico-temple,Colonia Juárez, Chihuahua,Mexico,"March 6, 1999",NA,30.3076107,-108.081005,Gordon B. Hinckley,1995-03-12 UTC--2008-01-27 UTC,1995-03-12T00:00:00Z,2008-01-27T00:00:00Z
Columbia River Washington Temple,2,2,1,16880,2.88,16,0,16,538,1,Attached,Yes,2000-04-02,2000-10-28,2001-11-18,"Richland, Washington, United States",OPERATING,18 November 2001,43207,columbia-river-washington-temple,Richland, Washington,United States,"November 18, 2001",NA,46.2804298,-119.275205,Gordon B. Hinckley,1995-03-12 UTC--2008-01-27 UTC,1995-03-12T00:00:00Z,2008-01-27T00:00:00Z
Columbia South Carolina Temple,2,2,1,10700,3.6,18,0,18,307.5,1,Attached,Yes,1998-09-11,1998-12-05,1999-10-16,"Hopkins, South Carolina, United States",OPERATING,16 October 1999,36987,columbia-south-carolina-temple,Hopkins, South Carolina,United States,"October 16, 1999",NA,44.9271194,-93.4074945,Gordon B. Hinckley,1995-03-12 UTC--2008-01-27 UTC,1995-03-12T00:00:00Z,2008-01-27T00:00:00Z
Columbus Ohio Temple,2,2,1,11745,5,18,0,18,858.9,1,Attached,Yes,1998-04-25,1998-09-12,1999-09-04,"Columbus, Ohio, United States",OPERATING,4 September 1999,36557,columbus-ohio-temple,Columbus, Ohio,United States,"September 4, 1999",NA,39.9622601,-83.0007065,Gordon B. Hinckley,1995-03-12 UTC--2008-01-27 UTC,1995-03-12T00:00:00Z,2008-01-27T00:00:00Z
Concepción Chile Temple,2,2,1,23095,4.06,23,9,32,56.9,1,Attached,Yes,2009-10-03,2015-10-17,2018-10-28,"Concepcion, Chile",OPERATING,28 October 2018,4007347,concepcion-chile-temple,Concepcion,,Chile,"October 28, 2018",NA,-36.8270795,-73.0502399,Thomas S. Monson,2008-02-03 UTC--2018-01-02 UTC,2008-02-03T00:00:00Z,2018-01-02T00:00:00Z
Copenhagen Denmark Temple,2,2,1,25000,0.6,3,0,3,27.2,1,Detached,Yes,1999-03-17,1999-04-24,2004-05-23,"Frederiksberg, Hovedstaden, Denmark",OPERATING,23 May 2004,38397,copenhagen-denmark-temple,Frederiksberg, Hovedstaden,Denmark,"May 23, 2004",NA,55.678016,12.5326186,Gordon B. Hinckley,1995-03-12 UTC--2008-01-27 UTC,1995-03-12T00:00:00Z,2008-01-27T00:00:00Z
Córdoba Argentina Temple,2,2,1,34369,5.18,25,8,33,NA,1,Attached,Yes,2008-10-04,2010-10-30,2015-05-17,"Córdoba, Argentina",OPERATING,17 May 2015,4005412,cordoba-argentina-temple,Córdoba,,Argentina,"May 17, 2015",NA,-31.4166867,-64.1834193,Thomas S. Monson,2008-02-03 UTC--2018-01-02 UTC,2008-02-03T00:00:00Z,2018-01-02T00:00:00Z
Curitiba Brazil Temple,2,2,1,27850,8.15,31,3,34,NA,1,Attached,Yes,2002-08-23,2005-03-10,2008-06-01,"Curitiba, Parana, Brazil",OPERATING,1 June 2008,69206,curitiba-brazil-temple,Curitiba, Parana,Brazil,"June 1, 2008",NA,-25.4295963,-49.2712724,Gordon B. Hinckley,1995-03-12 UTC--2008-01-27 UTC,1995-03-12T00:00:00Z,2008-01-27T00:00:00Z
Dallas Texas Temple,5,4,1,44207,6,28,0,28,617.7,6,Detached,Yes,1981-04-01,1983-01-22,1984-10-19,"Dallas, Texas, United States",OPERATING,19 October 1984,33,dallas-texas-temple,Dallas, Texas,United States,"October 19, 1984",NA,32.7762719,-96.7968559,Spencer W. Kimball,1973-12-30 UTC--1985-11-05 UTC,1973-12-30T00:00:00Z,1985-11-05T00:00:00Z
Davao Philippines Temple,NA,NA,NA,18450,2.7,NA,NA,NA,68.4,1,Attached,No,2018-10-07,2020-11-14,NA,"Davao, Philippines",CONSTRUCTION,Construction,4114419,davao-philippines-temple,Davao,,Philippines,,NA,7.0648306,125.6080623,Russell M. Nelson,2018-01-14 UTC--2023-07-15 UTC,2018-01-14T00:00:00Z,2023-07-15T00:00:00Z
Denver Colorado Temple,4,5,1,29117,7.5,19,0,19,NA,1,Attached,Yes,1982-03-31,1984-05-19,1986-10-24,"Centennial, Colorado, United States",OPERATING,24 October 1986,25,denver-colorado-temple,Centennial, Colorado,United States,"October 24, 1986",NA,39.579155,-104.8769227,Spencer W. Kimball,1973-12-30 UTC--1985-11-05 UTC,1973-12-30T00:00:00Z,1985-11-05T00:00:00Z
Deseret Peak Utah Temple,4,4,1,70000,17.98,NA,NA,NA,NA,1,Attached,No,2019-04-07,2021-05-15,NA,"Tooele, Utah, United States",CONSTRUCTION,Construction,4119593,deseret-peak-utah-temple,Tooele, Utah,United States,,NA,40.5307776,-112.29828,Russell M. Nelson,2018-01-14 UTC--2023-07-15 UTC,2018-01-14T00:00:00Z,2023-07-15T00:00:00Z
Detroit Michigan Temple,2,2,1,10700,6.34,10,1,11,796.5,1,Attached,Yes,1998-08-10,1998-10-10,1999-10-23,"Bloomfield Hills, Michigan, United States",OPERATING,23 October 1999,36583,detroit-michigan-temple,Bloomfield Hills, Michigan,United States,"October 23, 1999",NA,42.583645,-83.2454883,Gordon B. Hinckley,1995-03-12 UTC--2008-01-27 UTC,1995-03-12T00:00:00Z,2008-01-27T00:00:00Z
Draper Utah Temple,4,5,1,58300,12,28,0,28,NA,1,Attached,Yes,2004-10-02,2006-08-05,2009-03-20,"Draper, Utah, United States",OPERATING,20 March 2009,75530,draper-utah-temple,Draper, Utah,United States,"March 20, 2009",NA,40.5247777,-111.8627989,Gordon B. Hinckley,1995-03-12 UTC--2008-01-27 UTC,1995-03-12T00:00:00Z,2008-01-27T00:00:00Z
Durban South Africa Temple,1,1,1,19860,14.49,11,6,17,337.4,1,Attached,Yes,2011-10-01,2016-04-09,2020-02-16,"Durban, South Africa",OPERATING,16 February 2020,4012419,durban-south-africa-temple,Durban,,South Africa,"February 16, 2020",NA,-29.861825,31.009909,Thomas S. Monson,2008-02-03 UTC--2018-01-02 UTC,2008-02-03T00:00:00Z,2018-01-02T00:00:00Z
Edmonton Alberta Temple,2,2,1,10700,1,8,0,8,NA,1,Attached,Yes,1998-08-11,1999-02-27,1999-12-11,"Edmonton, Alberta, Canada",OPERATING,11 December 1999,36558,edmonton-alberta-temple,Edmonton, Alberta,Canada,"December 11, 1999",NA,53.5462055,-113.491241,Gordon B. Hinckley,1995-03-12 UTC--2008-01-27 UTC,1995-03-12T00:00:00Z,2008-01-27T00:00:00Z
Elko Nevada Temple,1,1,1,10000,5.2,NA,NA,NA,NA,1,Attached,No,2021-04-04,2022-05-07,NA,Location Not Available,CONSTRUCTION,Construction,4138367,elko-nevada-temple,,,United States,,United States,39.7837304,-100.445882,Russell M. Nelson,2018-01-14 UTC--2023-07-15 UTC,2018-01-14T00:00:00Z,2023-07-15T00:00:00Z
Ephraim Utah Temple,4,3,1,39000,9.16,NA,NA,NA,NA,2,Attached,No,2021-05-01,2022-08-27,NA,Location Not Available,CONSTRUCTION,Construction,4138990,ephraim-utah-temple,,,United States,,United States,39.7837304,-100.445882,Russell M. Nelson,2018-01-14 UTC--2023-07-15 UTC,2018-01-14T00:00:00Z,2023-07-15T00:00:00Z
Farmington New Mexico Temple,2,2,1,25000,6.62,NA,NA,NA,NA,1,Attached,No,2021-04-04,2022-04-30,NA,Location Not Available,CONSTRUCTION,Construction,4138364,farmington-new-mexico-temple,,,United States,,United States,39.7837304,-100.445882,Russell M. Nelson,2018-01-14 UTC--2023-07-15 UTC,2018-01-14T00:00:00Z,2023-07-15T00:00:00Z
Feather River California Temple,4,3,1,41484,9.4,NA,NA,NA,60.4,1,Attached,Yes,2018-10-07,2020-07-18,2023-10-08,"Yuba City, California, United States",CONSTRUCTION,Construction,4114412,feather-river-california-temple,Yuba City, California,United States,,NA,39.1404477,-121.6169108,Russell M. Nelson,2018-01-14 UTC--2023-07-15 UTC,2018-01-14T00:00:00Z,2023-07-15T00:00:00Z
Fort Collins Colorado Temple,2,3,1,42000,15.69,14,0,14,NA,1,Attached,Yes,2011-04-02,2013-08-24,2016-10-16,"Fort Collins, Colorado, United States",OPERATING,16 October 2016,4010939,fort-collins-colorado-temple,Fort Collins, Colorado,United States,"October 16, 2016",NA,40.5508527,-105.0668085,Thomas S. Monson,2008-02-03 UTC--2018-01-02 UTC,2008-02-03T00:00:00Z,2018-01-02T00:00:00Z
Fort Lauderdale Florida Temple,2,3,1,30500,16.82,7,1,8,5.6,1,Attached,Yes,2009-10-03,2011-06-18,2014-05-04,"Davie, Florida, United States",OPERATING,4 May 2014,4007348,fort-lauderdale-florida-temple,Davie, Florida,United States,"May 4, 2014",NA,26.0628665,-80.2331038,Thomas S. Monson,2008-02-03 UTC--2018-01-02 UTC,2008-02-03T00:00:00Z,2018-01-02T00:00:00Z
Fortaleza Brazil Temple,2,2,1,36000,10,24,3,27,202.2,1,Attached,Yes,2009-10-03,2011-11-15,2019-06-02,"Fortaleza, Ceará, Brazil",OPERATING,2 June 2019,4007351,fortaleza-brazil-temple,Fortaleza, Ceará,Brazil,"June 2, 2019",NA,-3.7304512,-38.5217989,Thomas S. Monson,2008-02-03 UTC--2018-01-02 UTC,2008-02-03T00:00:00Z,2018-01-02T00:00:00Z
Frankfurt Germany Temple,4,4,1,32895,5.6,15,3,18,669.9,1,Detached,Yes,1981-04-01,1985-07-01,1987-08-28,"Friedrichsdorf, Hessen, Germany",OPERATING,28 August 1987,26,frankfurt-germany-temple,Friedrichsdorf, Hessen,Germany,"August 28, 1987",NA,50.2556672,8.6511395,Spencer W. Kimball,1973-12-30 UTC--1985-11-05 UTC,1973-12-30T00:00:00Z,1985-11-05T00:00:00Z
Freetown Sierra Leone Temple,2,2,1,18000,2.9,NA,NA,NA,97.2,1,Attached,No,2019-10-05,2022-03-19,NA,Location Not Available,CONSTRUCTION,Construction,4124790,freetown-sierra-leone-temple,,,International,,NA,NA,NA,Russell M. Nelson,2018-01-14 UTC--2023-07-15 UTC,2018-01-14T00:00:00Z,2023-07-15T00:00:00Z
Freiberg Germany Temple,2,2,1,21500,3.58,5,4,9,NA,1,Attached,Yes,1982-10-09,1983-04-23,1985-06-29,"Freiberg, Sachsen, Germany",OPERATING,29 June 1985,35,freiberg-germany-temple,Freiberg, Sachsen,Germany,"June 29, 1985",NA,50.9169415,13.3428889,Spencer W. Kimball,1973-12-30 UTC--1985-11-05 UTC,1973-12-30T00:00:00Z,1985-11-05T00:00:00Z
Fresno California Temple,2,2,1,10700,2.34,8,0,8,319.5,1,Attached,Yes,1999-01-08,1999-03-20,2000-04-09,"Fresno, California, United States",OPERATING,9 April 2000,37354,fresno-california-temple,Fresno, California,United States,"April 9, 2000",NA,36.7394421,-119.7848307,Gordon B. Hinckley,1995-03-12 UTC--2008-01-27 UTC,1995-03-12T00:00:00Z,2008-01-27T00:00:00Z
Fukuoka Japan Temple,2,2,1,10700,1.25,4,5,9,81,1,Attached,Yes,1998-05-07,1999-03-20,2000-06-11,"Fukuoka-shi, Fukuoka, Japan",OPERATING,11 June 2000,36559,fukuoka-japan-temple,Fukuoka-shi, Fukuoka,Japan,"June 11, 2000",NA,33.5898988,130.4017509,Gordon B. Hinckley,1995-03-12 UTC--2008-01-27 UTC,1995-03-12T00:00:00Z,2008-01-27T00:00:00Z
Gilbert Arizona Temple,3,7,1,85326,15.38,37,0,37,NA,1,Attached,Yes,2008-04-26,2010-11-13,2014-03-02,"Gilbert, Arizona, United States",OPERATING,2 March 2014,4004671,gilbert-arizona-temple,Gilbert, Arizona,United States,"March 2, 2014",NA,33.3527632,-111.789037,Thomas S. Monson,2008-02-03 UTC--2018-01-02 UTC,2008-02-03T00:00:00Z,2018-01-02T00:00:00Z
Grand Junction Colorado Temple,2,2,1,25000,6.94,NA,NA,NA,NA,1,Attached,No,2021-04-04,2022-04-16,NA,Location Not Available,CONSTRUCTION,Construction,4138363,grand-junction-colorado-temple,,,United States,,United States,39.7837304,-100.445882,Russell M. Nelson,2018-01-14 UTC--2023-07-15 UTC,2018-01-14T00:00:00Z,2023-07-15T00:00:00Z
Guadalajara Mexico Temple,2,2,1,10700,2.69,18,5,23,NA,1,Attached,Yes,1999-04-14,1999-06-12,2001-04-29,"Zapopan, Jalisco, Mexico",OPERATING,29 April 2001,38682,guadalajara-mexico-temple,Zapopan, Jalisco,Mexico,"April 29, 2001",NA,20.7211203,-103.3913671,Gordon B. Hinckley,1995-03-12 UTC--2008-01-27 UTC,1995-03-12T00:00:00Z,2008-01-27T00:00:00Z
Guatemala City Guatemala Temple,4,3,1,11610,1.4,33,8,41,NA,6,Detached,Yes,1981-04-01,1982-09-12,1984-12-14,"Guatemala City, Guatemala, Guatemala",OPERATING,14 December 1984,36,guatemala-city-guatemala-temple,Guatemala City, Guatemala,Guatemala,"December 14, 1984",NA,14.6222328,-90.5185188,Spencer W. Kimball,1973-12-30 UTC--1985-11-05 UTC,1973-12-30T00:00:00Z,1985-11-05T00:00:00Z
Guayaquil Ecuador Temple,4,3,1,45000,6.2,29,4,33,58.1,1,Attached,Yes,1982-03-31,1996-08-10,1999-08-01,"Guayaquil, Guayas, Ecuador",OPERATING,1 August 1999,37,guayaquil-ecuador-temple,Guayaquil, Guayas,Ecuador,"August 1, 1999",NA,-2.1900563,-79.8868741,Spencer W. Kimball,1973-12-30 UTC--1985-11-05 UTC,1973-12-30T00:00:00Z,1985-11-05T00:00:00Z
Halifax Nova Scotia Temple,2,2,1,10700,2,2,1,3,209.8,1,Attached,Yes,1998-05-07,1998-10-12,1999-11-14,"Dartmouth, Nova Scotia, Canada",OPERATING,14 November 1999,36560,halifax-nova-scotia-temple,Dartmouth, Nova Scotia,Canada,"November 14, 1999",NA,44.6799707,-63.5720232,Gordon B. Hinckley,1995-03-12 UTC--2008-01-27 UTC,1995-03-12T00:00:00Z,2008-01-27T00:00:00Z
Hamilton New Zealand Temple,2,5,1,45251,35,31,3,34,131.2,1,Attached,No,1955-02-17,1955-12-21,1958-04-20,"Hamilton, Auckland, New Zealand",OPERATING,20 April 1958,45,hamilton-new-zealand-temple,Hamilton, Auckland,New Zealand,"April 20, 1958",NA,-37.7878809,175.281788,David O. McKay,1951-04-09 UTC--1970-01-18 UTC,1951-04-09T00:00:00Z,1970-01-18T00:00:00Z
Harare Zimbabwe Temple,2,2,1,17250,6.7,NA,NA,NA,NA,1,Attached,No,2016-04-03,2020-12-12,NA,"Harare, Zimbabwe",CONSTRUCTION,Construction,4086053,harare-zimbabwe-temple,Harare,,Zimbabwe,,NA,-17.831773,31.045686,Thomas S. Monson,2008-02-03 UTC--2018-01-02 UTC,2008-02-03T00:00:00Z,2018-01-02T00:00:00Z
Hartford Connecticut Temple,2,2,1,32246,11.3,7,0,7,179.8,1,Attached,Yes,2010-10-02,2013-08-17,2016-11-20,"Farmington, Connecticut, United States",OPERATING,20 November 2016,4009692,hartford-connecticut-temple,Farmington, Connecticut,United States,"November 20, 2016",NA,44.6402434,-93.1435497,Thomas S. Monson,2008-02-03 UTC--2018-01-02 UTC,2008-02-03T00:00:00Z,2018-01-02T00:00:00Z
Heber Valley Utah Temple,4,4,1,88000,17.9,NA,NA,NA,NA,2,Attached,No,2021-10-03,2022-10-08,NA,Location Not Available,ANNOUNCED,Announced,4142982,heber-valley-utah-temple,,,United States,,United States,39.7837304,-100.445882,Russell M. Nelson,2018-01-14 UTC--2023-07-15 UTC,2018-01-14T00:00:00Z,2023-07-15T00:00:00Z
Helena Montana Temple,1,1,1,9794,4.75,5,0,5,NA,1,Attached,No,2021-04-04,2021-06-26,2023-06-18,"Helena, Montana, United States",OPERATING,18 June 2023,4138361,helena-montana-temple,Helena, Montana,United States,"June 18, 2023",NA,46.5927425,-112.036277,Russell M. Nelson,2018-01-14 UTC--2023-07-15 UTC,2018-01-14T00:00:00Z,2023-07-15T00:00:00Z
Helsinki Finland Temple,2,2,1,16350,7.4,4,2,6,87.1,1,Attached,Yes,2000-04-02,2003-03-29,2006-10-22,"Espoo, Uusimaa, Finland",OPERATING,22 October 2006,43203,helsinki-finland-temple,Espoo, Uusimaa,Finland,"October 22, 2006",NA,60.2047672,24.6568435,Gordon B. Hinckley,1995-03-12 UTC--2008-01-27 UTC,1995-03-12T00:00:00Z,2008-01-27T00:00:00Z
Hermosillo Sonora Mexico Temple,2,2,1,10769,1.54,9,7,16,758.8,1,Attached,Yes,1998-07-20,1998-12-05,2000-02-27,"Hermosillo, Sonora, Mexico",OPERATING,27 February 2000,36561,hermosillo-sonora-mexico-temple,Hermosillo, Sonora,Mexico,"February 27, 2000",NA,29.0948207,-110.9692202,Gordon B. Hinckley,1995-03-12 UTC--2008-01-27 UTC,1995-03-12T00:00:00Z,2008-01-27T00:00:00Z
Hong Kong China Temple,2,2,1,51921,0.31,19,28,47,102,1,Attached,No,1992-10-03,1994-01-22,1996-05-26,"Kowloon Tong, Kowloon City, Hong Kong",OPERATING,26 May 1996,55,hong-kong-china-temple,Kowloon Tong, Kowloon City,Hong Kong,"May 26, 1996",NA,NA,NA,Ezra Taft Benson,1985-11-10 UTC--1994-05-30 UTC,1985-11-10T00:00:00Z,1994-05-30T00:00:00Z
Houston Texas Temple,2,3,1,33970,11,22,0,22,116.2,1,Attached,Yes,1997-09-30,1998-06-13,2000-08-26,"Spring, Texas, United States",OPERATING,26 August 2000,36562,houston-texas-temple,Spring, Texas,United States,"August 26, 2000",NA,30.0798826,-95.4172549,Gordon B. Hinckley,1995-03-12 UTC--2008-01-27 UTC,1995-03-12T00:00:00Z,2008-01-27T00:00:00Z
Idaho Falls Idaho Temple,4,7,1,85624,8.28,29,0,29,NA,1,Attached,Yes,1937-03-03,1939-12-19,1945-09-23,"Idaho Falls, Idaho, United States",OPERATING,23 September 1945,38,idaho-falls-idaho-temple,Idaho Falls, Idaho,United States,"September 23, 1945",NA,43.4887907,-112.03628,Heber J. Grant,1918-11-23 UTC--1945-05-14 UTC,1918-11-23T00:00:00Z,1945-05-14T00:00:00Z
Indianapolis Indiana Temple,2,2,1,34000,18.11,10,0,10,849.9,1,Attached,Yes,2010-10-02,2012-09-29,2015-08-23,"Carmel, Indiana, United States",OPERATING,23 August 2015,4009690,indianapolis-indiana-temple,Carmel, Indiana,United States,"August 23, 2015",NA,39.9788017,-86.1189257,Thomas S. Monson,2008-02-03 UTC--2018-01-02 UTC,2008-02-03T00:00:00Z,2018-01-02T00:00:00Z
Johannesburg South Africa Temple,4,3,1,19184,1,33,32,65,NA,6,Detached,Yes,1981-04-01,1982-11-27,1985-08-24,"Johannesburg, Gauteng, South Africa",OPERATING,24 August 1985,2,johannesburg-south-africa-temple,Johannesburg, Gauteng,South Africa,"August 24, 1985",NA,-26.205,28.049722,Spencer W. Kimball,1973-12-30 UTC--1985-11-05 UTC,1973-12-30T00:00:00Z,1985-11-05T00:00:00Z
Jordan River Utah Temple,6,16,1,148236,15,65,0,65,NA,1,Attached,Yes,1978-02-03,1979-06-09,1981-11-16,"South Jordan, Utah, United States",OPERATING,16 November 1981,39,jordan-river-utah-temple,South Jordan, Utah,United States,"November 16, 1981",NA,40.5584882,-111.9367107,Spencer W. Kimball,1973-12-30 UTC--1985-11-05 UTC,1973-12-30T00:00:00Z,1985-11-05T00:00:00Z
Kansas City Missouri Temple,2,3,1,32000,8.05,16,0,16,875.7,2,Attached,Yes,2008-10-04,2010-05-08,2012-05-06,"Kansas City, Missouri, United States",OPERATING,6 May 2012,4005413,kansas-city-missouri-temple,Kansas City, Missouri,United States,"May 6, 2012",NA,39.100105,-94.5781416,Thomas S. Monson,2008-02-03 UTC--2018-01-02 UTC,2008-02-03T00:00:00Z,2018-01-02T00:00:00Z
Kinshasa Democratic Republic of the Congo Temple,1,1,1,12000,5,31,8,39,914,1,Attached,No,2011-10-01,2016-02-12,2019-04-14,"Kinshasa, Democratic Republic of the Congo",OPERATING,14 April 2019,4012418,kinshasa-democratic-republic-of-the-congo-temple,Kinshasa,,Democratic Republic of the Congo,"April 14, 2019",NA,-4.3217055,15.3125974,Thomas S. Monson,2008-02-03 UTC--2018-01-02 UTC,2008-02-03T00:00:00Z,2018-01-02T00:00:00Z
Kona Hawaii Temple,2,2,1,10700,7.02,4,0,4,198.4,1,Attached,Yes,1998-05-07,1999-03-13,2000-01-23,"Kailua-Kona, Hawaii, United States",OPERATING,23 January 2000,36564,kona-hawaii-temple,Kailua-Kona, Hawaii,United States,"January 23, 2000",NA,19.641941,-155.996933,Gordon B. Hinckley,1995-03-12 UTC--2008-01-27 UTC,1995-03-12T00:00:00Z,2008-01-27T00:00:00Z
Kyiv Ukraine Temple,2,2,1,22184,12.35,4,8,12,562.5,1,Attached,Yes,1998-07-20,2007-06-23,2010-08-29,"Kyevo-Sviatoshyns’ky Rayon, Kyiv, Ukraine",OPERATING,29 August 2010,36563,kyiv-ukraine-temple,Kyevo-Sviatoshyns’ky Rayon, Kyiv,Ukraine,"August 29, 2010",NA,NA,NA,Gordon B. Hinckley,1995-03-12 UTC--2008-01-27 UTC,1995-03-12T00:00:00Z,2008-01-27T00:00:00Z
Laie Hawaii Temple,4,5,1,42100,11.4,14,1,15,29.2,1,Attached,No,1915-10-03,1916-02-08,1919-11-27,"Laie, Hawaii, United States",OPERATING,27 November 1919,1,laie-hawaii-temple,Laie, Hawaii,United States,"November 27, 1919",NA,21.6438449,-157.924442,Joseph F. Smith,1901-10-17 UTC--1918-11-19 UTC,1901-10-17T00:00:00Z,1918-11-19T00:00:00Z
Las Vegas Nevada Temple,4,6,1,80350,10.3,30,0,30,NA,6,Attached,Yes,1984-04-07,1985-11-30,1989-12-16,"Las Vegas, Nevada, United States",OPERATING,16 December 1989,4,las-vegas-nevada-temple,Las Vegas, Nevada,United States,"December 16, 1989",NA,36.1672559,-115.148516,Spencer W. Kimball,1973-12-30 UTC--1985-11-05 UTC,1973-12-30T00:00:00Z,1985-11-05T00:00:00Z
Layton Utah Temple,NA,NA,NA,87000,11.87,NA,NA,NA,NA,2,Attached,Yes,2018-04-01,2020-05-23,NA,"Layton, Utah, United States",CONSTRUCTION,Construction,4108674,layton-utah-temple,Layton, Utah,United States,,NA,41.0751048,-111.9741925,Russell M. Nelson,2018-01-14 UTC--2023-07-15 UTC,2018-01-14T00:00:00Z,2023-07-15T00:00:00Z
Lima Peru Los Olivos Temple,NA,NA,NA,22077,2.46,NA,NA,NA,332.4,1,Attached,No,2016-04-03,2019-06-08,2024-01-14,"Los Olivos, Lima, Peru",CONSTRUCTION,Construction,4086056,lima-peru-los-olivos-temple,Los Olivos, Lima,Peru,,NA,-11.9659853,-77.07307131998294,Thomas S. Monson,2008-02-03 UTC--2018-01-02 UTC,2008-02-03T00:00:00Z,2018-01-02T00:00:00Z
Lima Peru Temple,4,3,1,9600,4.5,68,7,75,812.7,6,Detached,Yes,1981-04-01,1982-09-11,1986-01-10,"La Molina, Lima, Peru",OPERATING,10 January 1986,42,lima-peru-temple,La Molina, Lima,Peru,"January 10, 1986",NA,-12.0901768,-76.92233779667893,Spencer W. Kimball,1973-12-30 UTC--1985-11-05 UTC,1973-12-30T00:00:00Z,1985-11-05T00:00:00Z
Lindon Utah Temple,4,4,2,87005,11.87,NA,NA,NA,NA,2,Attached,No,2020-10-04,2022-04-23,NA,Location Not Available,CONSTRUCTION,Construction,4134472,lindon-utah-temple,,,United States,,United States,39.7837304,-100.445882,Russell M. Nelson,2018-01-14 UTC--2023-07-15 UTC,2018-01-14T00:00:00Z,2023-07-15T00:00:00Z
Lisbon Portugal Temple,2,1,1,23730,4.6,7,1,8,45.5,1,Attached,Yes,2010-10-02,2015-12-05,2019-09-15,"Lisbon, Portugal",OPERATING,15 September 2019,4009689,lisbon-portugal-temple,Lisbon,,Portugal,"September 15, 2019",NA,38.7077507,-9.1365919,Thomas S. Monson,2008-02-03 UTC--2018-01-02 UTC,2008-02-03T00:00:00Z,2018-01-02T00:00:00Z
Logan Utah Temple,4,11,1,119619,9,42,0,42,NA,2,Attached,No,1876-10-06,1877-05-18,1884-05-17,"Logan, Utah, United States",OPERATING,17 May 1884,3,logan-utah-temple,Logan, Utah,United States,"May 17, 1884",NA,41.7313063,-111.8349145,Brigham Young,1844-06-27 UTC--1877-08-29 UTC,1844-06-27T00:00:00Z,1877-08-29T00:00:00Z
London England Temple,4,8,1,42652,32,19,1,20,196.8,1,Attached,Yes,1953-08-10,1955-08-27,1958-09-07,"Newchapel, Surrey, England",OPERATING,7 September 1958,41,london-england-temple,Newchapel, Surrey,England,"September 7, 1958",NA,NA,NA,David O. McKay,1951-04-09 UTC--1970-01-18 UTC,1951-04-09T00:00:00Z,1970-01-18T00:00:00Z
Los Angeles California Temple,4,10,1,190614,13,36,0,36,289.9,1,Attached,Yes,1937-03-06,1951-09-22,1956-03-11,"Los Angeles, California, United States",OPERATING,11 March 1956,40,los-angeles-california-temple,Los Angeles, California,United States,"March 11, 1956",NA,34.0536909,-118.242766,Heber J. Grant,1918-11-23 UTC--1945-05-14 UTC,1918-11-23T00:00:00Z,1945-05-14T00:00:00Z
Louisville Kentucky Temple,2,2,1,10700,3,9,0,9,785.7,1,Attached,Yes,1999-03-17,1999-05-29,2000-03-19,"Crestwood, Kentucky, United States",OPERATING,19 March 2000,38376,louisville-kentucky-temple,Crestwood, Kentucky,United States,"March 19, 2000",NA,41.6611444,-87.7525511,Gordon B. Hinckley,1995-03-12 UTC--2008-01-27 UTC,1995-03-12T00:00:00Z,2008-01-27T00:00:00Z
Lubbock Texas Temple,2,2,1,16498,2.7,6,1,7,NA,1,Attached,Yes,2000-04-02,2000-11-04,2002-04-21,"Lubbock, Texas, United States",OPERATING,21 April 2002,43205,lubbock-texas-temple,Lubbock, Texas,United States,"April 21, 2002",NA,33.5855677,-101.8470215,Gordon B. Hinckley,1995-03-12 UTC--2008-01-27 UTC,1995-03-12T00:00:00Z,2008-01-27T00:00:00Z
Lubumbashi Democratic Republic of the Congo Temple,2,2,1,16700,2.57,NA,NA,NA,NA,1,Attached,No,2020-04-05,2022-08-20,NA,Location Not Available,CONSTRUCTION,Construction,4130712,lubumbashi-democratic-republic-of-the-congo-temple,,,International,,NA,NA,NA,Russell M. Nelson,2018-01-14 UTC--2023-07-15 UTC,2018-01-14T00:00:00Z,2023-07-15T00:00:00Z
Madrid Spain Temple,4,4,1,45800,3.5,15,1,16,NA,1,Attached,Yes,1993-04-04,1996-06-11,1999-03-19,"Madrid, Madrid, Spain",OPERATING,19 March 1999,27,madrid-spain-temple,Madrid, Madrid,Spain,"March 19, 1999",NA,40.4167047,-3.7035825,Ezra Taft Benson,1985-11-10 UTC--1994-05-30 UTC,1985-11-10T00:00:00Z,1994-05-30T00:00:00Z
Managua Nicaragua Temple,2,2,1,25000,8.9,NA,NA,NA,817.9,1,Attached,No,2018-04-01,2022-11-26,NA,Location Not Available,ANNOUNCED,Announced,4108672,managua-nicaragua-temple,,,International,,International,NA,NA,Russell M. Nelson,2018-01-14 UTC--2023-07-15 UTC,2018-01-14T00:00:00Z,2023-07-15T00:00:00Z
Manaus Brazil Temple,2,2,1,32032,7.7,13,4,17,106.9,1,Attached,Yes,2007-05-23,2008-06-20,2012-06-10,"Manaus, Amazonas, Brazil",OPERATING,10 June 2012,79543,manaus-brazil-temple,Manaus, Amazonas,Brazil,"June 10, 2012",NA,-3.1316333,-59.9825041,Gordon B. Hinckley,1995-03-12 UTC--2008-01-27 UTC,1995-03-12T00:00:00Z,2008-01-27T00:00:00Z
Manhattan New York Temple,2,2,1,20630,0.3,11,0,11,80.3,1,Attached,Yes,2002-08-07,2002-09-23,2004-06-13,"New York, New York, United States",OPERATING,13 June 2004,69208,manhattan-new-york-temple,New York, New York,United States,"June 13, 2004",NA,40.7127281,-74.0060152,Gordon B. Hinckley,1995-03-12 UTC--2008-01-27 UTC,1995-03-12T00:00:00Z,2008-01-27T00:00:00Z
Manila Philippines Temple,4,3,1,26683,3.5,85,25,110,167.9,6,Detached,Yes,1981-04-01,1982-08-25,1984-09-25,"Quezon City, Metro Manila, Philippines",OPERATING,25 September 1984,59,manila-philippines-temple,Quezon City, Metro Manila,Philippines,"September 25, 1984",NA,14.6504951,121.0490906,Spencer W. Kimball,1973-12-30 UTC--1985-11-05 UTC,1973-12-30T00:00:00Z,1985-11-05T00:00:00Z
Manti Utah Temple,4,8,1,74792,27,23,0,23,NA,2,Attached,No,1875-06-25,1877-04-25,1888-05-21,"Manti, Utah, United States",RENOVATION,Renovation,43,manti-utah-temple,Manti, Utah,United States,,NA,39.2682951,-111.6368627,Brigham Young,1844-06-27 UTC--1877-08-29 UTC,1844-06-27T00:00:00Z,1877-08-29T00:00:00Z
McAllen Texas Temple,2,2,1,29732,10.6,NA,NA,NA,107.2,1,Attached,No,2019-10-05,2020-11-21,2023-10-08,"McAllen, Texas, United States",CONSTRUCTION,Construction,4124795,mcallen-texas-temple,McAllen, Texas,United States,,NA,26.204114,-98.2300605,Russell M. Nelson,2018-01-14 UTC--2023-07-15 UTC,2018-01-14T00:00:00Z,2023-07-15T00:00:00Z
Medford Oregon Temple,2,2,1,10700,2,8,0,8,NA,1,Attached,Yes,1999-03-15,1999-05-20,2000-04-16,"Central Point, Oregon, United States",OPERATING,16 April 2000,38377,medford-oregon-temple,Central Point, Oregon,United States,"April 16, 2000",NA,42.376782,-122.912721,Gordon B. Hinckley,1995-03-12 UTC--2008-01-27 UTC,1995-03-12T00:00:00Z,2008-01-27T00:00:00Z
Melbourne Australia Temple,2,2,1,10700,5.98,11,0,11,314.1,1,Attached,Yes,1998-10-30,1999-03-20,2000-06-16,"Wantirna South, Victoria, Australia",OPERATING,16 June 2000,36986,melbourne-australia-temple,Wantirna South, Victoria,Australia,"June 16, 2000",NA,-37.8737902,145.2217475,Gordon B. Hinckley,1995-03-12 UTC--2008-01-27 UTC,1995-03-12T00:00:00Z,2008-01-27T00:00:00Z
Memphis Tennessee Temple,2,2,1,10890,6.35,6,0,6,323.7,1,Attached,Yes,1998-09-17,1999-01-16,2000-04-23,"Bartlett, Tennessee, United States",OPERATING,23 April 2000,36988,memphis-tennessee-temple,Bartlett, Tennessee,United States,"April 23, 2000",NA,41.9908485,-88.1850028,Gordon B. Hinckley,1995-03-12 UTC--2008-01-27 UTC,1995-03-12T00:00:00Z,2008-01-27T00:00:00Z
Mendoza Argentina Temple,2,2,1,21000,NA,NA,NA,NA,NA,1,Attached,No,2018-10-07,2020-12-17,NA,"Mendoza, Argentina",CONSTRUCTION,Construction,4114410,mendoza-argentina-temple,Mendoza,,Argentina,,NA,-32.8894155,-68.8446177,Russell M. Nelson,2018-01-14 UTC--2023-07-15 UTC,2018-01-14T00:00:00Z,2023-07-15T00:00:00Z
Mérida Mexico Temple,2,2,1,10700,1.53,14,2,16,34.7,1,Attached,Yes,1998-09-25,1999-01-16,2000-07-08,"Mérida, Yucatan, Mexico",OPERATING,8 July 2000,36916,merida-mexico-temple,Mérida, Yucatan,Mexico,"July 8, 2000",NA,20.9670759,-89.6237402,Gordon B. Hinckley,1995-03-12 UTC--2008-01-27 UTC,1995-03-12T00:00:00Z,2008-01-27T00:00:00Z
Meridian Idaho Temple,3,5,1,67331,15.73,19,0,19,NA,1,Attached,Yes,2011-04-02,2014-08-23,2017-11-19,"Meridian, Idaho, United States",OPERATING,19 November 2017,4010938,meridian-idaho-temple,Meridian, Idaho,United States,"November 19, 2017",NA,32.3643098,-88.703656,Thomas S. Monson,2008-02-03 UTC--2018-01-02 UTC,2008-02-03T00:00:00Z,2018-01-02T00:00:00Z
Mesa Arizona Temple,4,6,1,113916,20,29,0,29,NA,0,None,No,1919-10-03,1922-04-25,1927-10-23,"Mesa, Arizona, United States",OPERATING,23 October 1927,22,mesa-arizona-temple,Mesa, Arizona,United States,"October 23, 1927",NA,33.4151005,-111.831455,Heber J. Grant,1918-11-23 UTC--1945-05-14 UTC,1918-11-23T00:00:00Z,1945-05-14T00:00:00Z
Mexico City Mexico Temple,4,11,1,116642,7,96,4,100,NA,1,Attached,Yes,1976-04-03,1979-11-25,1983-12-02,"México, Distrito Federal, Mexico",OPERATING,2 December 1983,5,mexico-city-mexico-temple,México, Distrito Federal,Mexico,"December 2, 1983",NA,19.4326296,-99.1331785,Spencer W. Kimball,1973-12-30 UTC--1985-11-05 UTC,1973-12-30T00:00:00Z,1985-11-05T00:00:00Z
Miraflores Guatemala City Guatemala Temple,2,2,1,30000,1.5,NA,NA,NA,NA,1,Attached,No,2020-10-04,2022-12-03,NA,Location Not Available,ANNOUNCED,Announced,4134473,miraflores-guatemala-city-guatemala-temple,,,International,,International,NA,NA,Russell M. Nelson,2018-01-14 UTC--2023-07-15 UTC,2018-01-14T00:00:00Z,2023-07-15T00:00:00Z
Monterrey Mexico Temple,2,2,1,16498,7.78,26,6,32,NA,1,Attached,Yes,1995-12-21,2000-11-04,2002-04-28,"Monterrey, Nuevo Leon, Mexico",OPERATING,28 April 2002,60,monterrey-mexico-temple,Monterrey, Nuevo Leon,Mexico,"April 28, 2002",NA,25.6802019,-100.315258,Gordon B. Hinckley,1995-03-12 UTC--2008-01-27 UTC,1995-03-12T00:00:00Z,2008-01-27T00:00:00Z
Montevideo Uruguay Temple,2,2,1,10700,1.59,18,2,20,41.4,1,Attached,Yes,1998-11-02,1999-04-27,2001-03-18,"Carrasco, Montevideo, Uruguay",OPERATING,18 March 2001,36989,montevideo-uruguay-temple,Carrasco, Montevideo,Uruguay,"March 18, 2001",NA,-34.8855774,-56.0581498,Gordon B. Hinckley,1995-03-12 UTC--2008-01-27 UTC,1995-03-12T00:00:00Z,2008-01-27T00:00:00Z
Monticello Utah Temple,2,2,1,11225,1.33,7,0,7,NA,1,Attached,Yes,1997-10-04,1997-11-17,1998-07-26,"Monticello, Utah, United States",OPERATING,26 July 1998,36462,monticello-utah-temple,Monticello, Utah,United States,"July 26, 1998",NA,45.3053901,-93.7939996,Gordon B. Hinckley,1995-03-12 UTC--2008-01-27 UTC,1995-03-12T00:00:00Z,2008-01-27T00:00:00Z
Montpelier Idaho Temple,2,2,1,27000,2.6,NA,NA,NA,NA,1,Attached,No,2022-04-03,2023-06-17,NA,Location Not Available,ANNOUNCED,Announced,4148135,montpelier-idaho-temple,,,United States,,United States,39.7837304,-100.445882,Russell M. Nelson,2018-01-14 UTC--2023-07-15 UTC,2018-01-14T00:00:00Z,2023-07-15T00:00:00Z
Montreal Quebec Temple,2,2,1,11550,2.4,4,1,5,46.5,1,Attached,Yes,1998-08-06,1999-04-09,2000-06-04,"Longueuil, Quebec, Canada",OPERATING,4 June 2000,36565,montreal-quebec-temple,Longueuil, Quebec,Canada,"June 4, 2000",NA,45.521906,-73.4644578,Gordon B. Hinckley,1995-03-12 UTC--2008-01-27 UTC,1995-03-12T00:00:00Z,2008-01-27T00:00:00Z
Moses Lake Washington Temple,2,2,1,20000,17,NA,NA,NA,NA,1,Attached,No,2019-04-07,2020-10-10,2023-09-17,"Moses Lake, Washington, United States",CONSTRUCTION,Construction,4119594,moses-lake-washington-temple,Moses Lake, Washington,United States,,NA,47.1301417,-119.278077,Russell M. Nelson,2018-01-14 UTC--2023-07-15 UTC,2018-01-14T00:00:00Z,2023-07-15T00:00:00Z
Mount Timpanogos Utah Temple,4,8,1,107240,16.7,73,0,73,NA,1,Attached,Yes,1992-10-03,1993-10-09,1996-10-13,"American Fork, Utah, United States",OPERATING,13 October 1996,18,mount-timpanogos-utah-temple,American Fork, Utah,United States,"October 13, 1996",NA,40.3768064,-111.7959146,Ezra Taft Benson,1985-11-10 UTC--1994-05-30 UTC,1985-11-10T00:00:00Z,1994-05-30T00:00:00Z
Nairobi Kenya Temple,2,2,1,NA,NA,NA,NA,NA,NA,1,Attached,No,2017-04-02,2021-09-11,NA,"Nairobi, Kenya",CONSTRUCTION,Construction,4098473,nairobi-kenya-temple,Nairobi,,Kenya,,NA,-1.2832533,36.8172449,Thomas S. Monson,2008-02-03 UTC--2018-01-02 UTC,2008-02-03T00:00:00Z,2018-01-02T00:00:00Z
Nashville Tennessee Temple,2,2,1,10700,6.86,10,0,10,653.1,1,Attached,Yes,1994-11-09,1999-03-13,2000-05-21,"Franklin, Tennessee, United States",OPERATING,21 May 2000,13,nashville-tennessee-temple,Franklin, Tennessee,United States,"May 21, 2000",NA,35.925206,-86.8689419,Howard W. Hunter,1994-06-05 UTC--1995-03-03 UTC,1994-06-05T00:00:00Z,1995-03-03T00:00:00Z
Nauvoo Illinois Temple,4,6,1,54000,3.3,5,0,5,650,1,Attached,Yes,1999-04-04,1999-10-24,2002-06-27,"Nauvoo, Illinois, United States",OPERATING,27 June 2002,44,nauvoo-illinois-temple,Nauvoo, Illinois,United States,"June 27, 2002",NA,40.550042,-91.3848749,Gordon B. Hinckley,1995-03-12 UTC--2008-01-27 UTC,1995-03-12T00:00:00Z,2008-01-27T00:00:00Z
Neiafu Tonga Temple,2,2,1,17000,3.3,NA,NA,NA,101.7,1,Attached,No,2019-04-07,2021-09-11,NA,"Neiafu Vava’u, Tonga",CONSTRUCTION,Construction,4119592,neiafu-tonga-temple,Neiafu Vava’u,,Tonga,,NA,NA,NA,Russell M. Nelson,2018-01-14 UTC--2023-07-15 UTC,2018-01-14T00:00:00Z,2023-07-15T00:00:00Z
Newport Beach California Temple,2,3,1,17800,8.8,15,0,15,196.1,1,Attached,Yes,2001-04-21,2003-08-15,2005-08-28,"Newport Beach, California, United States",OPERATING,28 August 2005,45903,newport-beach-california-temple,Newport Beach, California,United States,"August 28, 2005",NA,33.6170092,-117.9294401,Gordon B. Hinckley,1995-03-12 UTC--2008-01-27 UTC,1995-03-12T00:00:00Z,2008-01-27T00:00:00Z
Nuku'alofa Tonga Temple,2,3,1,21184,1.2,21,2,23,49.7,1,Attached,Yes,1980-04-02,1981-02-18,1983-08-09,"Liahona, Tongatapu, Tonga",OPERATING,9 August 1983,12,nuku'alofa-tonga-temple,Liahona, Tongatapu,Tonga,"August 9, 1983",NA,NA,NA,Spencer W. Kimball,1973-12-30 UTC--1985-11-05 UTC,1973-12-30T00:00:00Z,1985-11-05T00:00:00Z
Oakland California Temple,4,7,1,80157,18.1,28,0,28,664.3,5,Attached,No,1961-01-23,1962-05-26,1964-11-17,"Oakland, California, United States",OPERATING,17 November 1964,46,oakland-california-temple,Oakland, California,United States,"November 17, 1964",NA,37.8044557,-122.271356,David O. McKay,1951-04-09 UTC--1970-01-18 UTC,1951-04-09T00:00:00Z,1970-01-18T00:00:00Z
Oaxaca Mexico Temple,2,2,1,10700,1.87,7,5,12,NA,1,Attached,Yes,1999-02-23,1999-03-13,2000-03-11,"Oaxaca, Oaxaca, Mexico",OPERATING,11 March 2000,37835,oaxaca-mexico-temple,Oaxaca, Oaxaca,Mexico,"March 11, 2000",NA,17.0604663,-96.7253575,Gordon B. Hinckley,1995-03-12 UTC--2008-01-27 UTC,1995-03-12T00:00:00Z,2008-01-27T00:00:00Z
Ogden Utah Temple,6,9,1,112232,9.96,64,0,64,NA,1,Attached,Yes,1967-08-24,1969-09-08,1972-01-18,"Ogden, Utah, United States",OPERATING,18 January 1972,6,ogden-utah-temple,Ogden, Utah,United States,"January 18, 1972",NA,41.2230048,-111.9738429,David O. McKay,1951-04-09 UTC--1970-01-18 UTC,1951-04-09T00:00:00Z,1970-01-18T00:00:00Z
Okinawa Japan Temple,NA,NA,NA,10000,0.5,NA,NA,NA,141.9,1,Attached,No,2019-04-07,2020-12-05,2023-11-12,"Okinawa, Japan",CONSTRUCTION,Construction,4119591,okinawa-japan-temple,Okinawa,,Japan,,NA,26.4748948,127.91146866408414,Russell M. Nelson,2018-01-14 UTC--2023-07-15 UTC,2018-01-14T00:00:00Z,2023-07-15T00:00:00Z
Oklahoma City Oklahoma Temple,2,2,1,10890,1,15,0,15,NA,1,Attached,Yes,1999-03-14,1999-07-03,2000-07-30,"Yukon, Oklahoma, United States",OPERATING,30 July 2000,38378,oklahoma-city-oklahoma-temple,Yukon, Oklahoma,United States,"July 30, 2000",NA,35.5067259,-97.7625386,Gordon B. Hinckley,1995-03-12 UTC--2008-01-27 UTC,1995-03-12T00:00:00Z,2008-01-27T00:00:00Z
Oquirrh Mountain Utah Temple,4,7,1,60000,11,41,0,41,NA,1,Attached,Yes,2005-10-01,2006-12-16,2009-08-21,"South Jordan, Utah, United States",OPERATING,21 August 2009,77200,oquirrh-mountain-utah-temple,South Jordan, Utah,United States,"August 21, 2009",NA,40.5584882,-111.9367107,Gordon B. Hinckley,1995-03-12 UTC--2008-01-27 UTC,1995-03-12T00:00:00Z,2008-01-27T00:00:00Z
Orem Utah Temple,4,4,1,70000,15.39,NA,NA,NA,NA,1,Attached,No,2019-10-05,2020-09-05,2024-01-21,"Orem, Utah, United States",CONSTRUCTION,Construction,4124791,orem-utah-temple,Orem, Utah,United States,,NA,40.2981599,-111.6944313,Russell M. Nelson,2018-01-14 UTC--2023-07-15 UTC,2018-01-14T00:00:00Z,2023-07-15T00:00:00Z
Orlando Florida Temple,4,5,1,70000,13,24,0,24,193.8,1,Attached,Yes,1990-02-17,1992-06-20,1994-10-09,"Windermere, Florida, United States",OPERATING,9 October 1994,7,orlando-florida-temple,Windermere, Florida,United States,"October 9, 1994",NA,28.4944695,-81.5345547,Ezra Taft Benson,1985-11-10 UTC--1994-05-30 UTC,1985-11-10T00:00:00Z,1994-05-30T00:00:00Z
Pago Pago American Samoa Temple,2,2,1,17000,NA,NA,NA,NA,61,1,Attached,No,2019-04-07,2021-10-30,NA,"Tafuna, Western District, American Samoa",CONSTRUCTION,Construction,4119590,pago-pago-american-samoa-temple,Tafuna, Western District,American Samoa,,NA,NA,NA,Russell M. Nelson,2018-01-14 UTC--2023-07-15 UTC,2018-01-14T00:00:00Z,2023-07-15T00:00:00Z
Palmyra New York Temple,2,2,1,10900,5,7,1,8,578.9,1,Attached,Yes,1999-02-21,1999-05-25,2000-04-06,"Palmyra, New York, United States",OPERATING,6 April 2000,37774,palmyra-new-york-temple,Palmyra, New York,United States,"April 6, 2000",NA,5.882204,-162.0748745,Gordon B. Hinckley,1995-03-12 UTC--2008-01-27 UTC,1995-03-12T00:00:00Z,2008-01-27T00:00:00Z
Panama City Panama Temple,2,2,1,18943,6.96,8,5,13,121.8,1,Attached,Yes,2002-08-23,2005-10-30,2008-08-10,"Corozal, Ancon, Panamá, Panama",OPERATING,10 August 2008,69207,panama-city-panama-temple,Corozal, Ancon,Panama,"August 10, 2008",NA,8.07207575,-81.41670995474647,Gordon B. Hinckley,1995-03-12 UTC--2008-01-27 UTC,1995-03-12T00:00:00Z,2008-01-27T00:00:00Z
Papeete Tahiti Temple,2,2,1,12150,1.7,11,2,13,71.1,1,Attached,Yes,1980-04-02,1981-02-13,1983-10-27,"Papeete, Tahiti, French Polynesia",OPERATING,27 October 1983,14,papeete-tahiti-temple,Papeete, Tahiti,French Polynesia,"October 27, 1983",NA,NA,NA,Spencer W. Kimball,1973-12-30 UTC--1985-11-05 UTC,1973-12-30T00:00:00Z,1985-11-05T00:00:00Z
Paris France Temple,2,3,1,44175,2.26,8,0,8,390.5,0,None,No,2011-10-01,2012-08-24,2017-05-21,"Le Chesnay, France",OPERATING,21 May 2017,4012417,paris-france-temple,Le Chesnay,,France,"May 21, 2017",NA,48.8264842,2.1257808,Thomas S. Monson,2008-02-03 UTC--2018-01-02 UTC,2008-02-03T00:00:00Z,2018-01-02T00:00:00Z
Payson Utah Temple,3,7,1,96630,10.63,30,0,30,NA,1,Attached,Yes,2010-01-25,2011-10-08,2015-06-07,"Payson, Utah, United States",OPERATING,7 June 2015,4007811,payson-utah-temple,Payson, Utah,United States,"June 7, 2015",NA,39.8169907,-91.2423657,Thomas S. Monson,2008-02-03 UTC--2018-01-02 UTC,2008-02-03T00:00:00Z,2018-01-02T00:00:00Z
Perth Australia Temple,2,2,1,10700,2.76,4,0,4,92.5,1,Attached,Yes,1999-06-11,1999-11-20,2001-05-20,"Yokine, Western Australia, Australia",OPERATING,20 May 2001,40203,perth-australia-temple,Yokine, Western Australia,Australia,"May 20, 2001",NA,-31.90171,115.8525017,Gordon B. Hinckley,1995-03-12 UTC--2008-01-27 UTC,1995-03-12T00:00:00Z,2008-01-27T00:00:00Z
Philadelphia Pennsylvania Temple,2,4,1,61466,1.6,11,0,11,32.6,2,Attached,Yes,2008-10-04,2011-09-17,2016-09-18,"Philadelphia, Pennsylvania, United States",OPERATING,18 September 2016,4005414,philadelphia-pennsylvania-temple,Philadelphia, Pennsylvania,United States,"September 18, 2016",NA,39.9527237,-75.1635262,Thomas S. Monson,2008-02-03 UTC--2018-01-02 UTC,2008-02-03T00:00:00Z,2018-01-02T00:00:00Z
Phnom Penh Cambodia Temple,1,1,1,10000,3.16,NA,NA,NA,35.3,5,Attached,No,2018-10-07,2021-09-18,NA,"Phnom Penh, Cambodia",CONSTRUCTION,Construction,4114413,phnom-penh-cambodia-temple,Phnom Penh,,Cambodia,,NA,11.568271,104.9224426,Russell M. Nelson,2018-01-14 UTC--2023-07-15 UTC,2018-01-14T00:00:00Z,2023-07-15T00:00:00Z
Phoenix Arizona Temple,2,4,1,64870,5.19,20,0,20,NA,1,Attached,Yes,2008-05-24,2011-06-04,2014-11-16,"Phoenix, Arizona, United States",OPERATING,16 November 2014,4004672,phoenix-arizona-temple,Phoenix, Arizona,United States,"November 16, 2014",NA,33.4484367,-112.074141,Thomas S. Monson,2008-02-03 UTC--2018-01-02 UTC,2008-02-03T00:00:00Z,2018-01-02T00:00:00Z
Pittsburgh Pennsylvania Temple,2,2,1,32000,5.8,NA,NA,NA,NA,1,Attached,No,2020-04-05,2021-08-21,NA,"Cranberry Township, Pennsylvania, United States",CONSTRUCTION,Construction,4130713,pittsburgh-pennsylvania-temple,Cranberry Township, Pennsylvania,United States,,NA,40.7099343,-80.1060506,Russell M. Nelson,2018-01-14 UTC--2023-07-15 UTC,2018-01-14T00:00:00Z,2023-07-15T00:00:00Z
Pocatello Idaho Temple,4,4,1,71125,10.94,20,0,20,NA,1,Attached,Yes,2017-04-02,2019-03-16,2021-11-07,"Pocatello, Idaho, United States",OPERATING,7 November 2021,4098474,pocatello-idaho-temple,Pocatello, Idaho,United States,"November 7, 2021",NA,42.8620287,-112.450627,Thomas S. Monson,2008-02-03 UTC--2018-01-02 UTC,2008-02-03T00:00:00Z,2018-01-02T00:00:00Z
Port Moresby Papua New Guinea Temple,1,1,1,9550,3.76,NA,NA,NA,82.9,1,Attached,No,2019-10-05,2023-04-22,NA,Location Not Available,ANNOUNCED,Announced,4124792,port-moresby-papua-new-guinea-temple,,,NA,,NA,NA,NA,Russell M. Nelson,2018-01-14 UTC--2023-07-15 UTC,2018-01-14T00:00:00Z,2023-07-15T00:00:00Z
Port Vila Vanuatu Temple,1,1,1,10000,1.62,NA,NA,NA,64.1,1,Attached,No,2020-10-04,2023-04-08,NA,Location Not Available,ANNOUNCED,Announced,4134471,port-vila-vanuatu-temple,,,NA,,NA,NA,NA,Russell M. Nelson,2018-01-14 UTC--2023-07-15 UTC,2018-01-14T00:00:00Z,2023-07-15T00:00:00Z
Port-au-Prince Haiti Temple,1,1,1,10396,1.77,5,4,9,674.7,1,Attached,No,2015-04-05,2017-10-28,2019-09-01,"Port-au-Prince, Haiti",OPERATING,1 September 2019,4069711,port-au-prince-haiti-temple,Port-au-Prince,,Haiti,"September 1, 2019",NA,18.547327,-72.3395928,Thomas S. Monson,2008-02-03 UTC--2018-01-02 UTC,2008-02-03T00:00:00Z,2018-01-02T00:00:00Z
Portland Oregon Temple,4,14,1,80500,7.3,31,0,31,235.8,6,Attached,Yes,1984-04-07,1986-09-20,1989-08-19,"Lake Oswego, Oregon, United States",OPERATING,19 August 1989,63,portland-oregon-temple,Lake Oswego, Oregon,United States,"August 19, 1989",NA,45.4206749,-122.670649,Spencer W. Kimball,1973-12-30 UTC--1985-11-05 UTC,1973-12-30T00:00:00Z,1985-11-05T00:00:00Z
Porto Alegre Brazil Temple,2,2,1,10700,2,26,6,32,307.7,1,Attached,Yes,1997-09-30,1998-05-02,2000-12-17,"Porto Alegre, Rio Grande do Sul, Brazil",OPERATING,17 December 2000,36566,porto-alegre-brazil-temple,Porto Alegre, Rio Grande do Sul,Brazil,"December 17, 2000",NA,-30.0324999,-51.2303767,Gordon B. Hinckley,1995-03-12 UTC--2008-01-27 UTC,1995-03-12T00:00:00Z,2008-01-27T00:00:00Z
Praia Cape Verde Temple,1,1,1,8759,4.46,4,1,5,17.9,1,Attached,No,2018-10-07,2019-05-04,2022-06-19,"Praia, Cape Verde",OPERATING,19 June 2022,4114414,praia-cape-verde-temple,Praia,,Cape Verde,"June 19, 2022",NA,14.9162811,-23.5095095,Russell M. Nelson,2018-01-14 UTC--2023-07-15 UTC,2018-01-14T00:00:00Z,2023-07-15T00:00:00Z
Preston England Temple,4,4,1,69630,15,23,1,24,361.9,1,Attached,Yes,1992-10-19,1994-06-12,1998-06-07,"Chorley, Lancashire, England",OPERATING,7 June 1998,19,preston-england-temple,Chorley, Lancashire,England,"June 7, 1998",NA,NA,NA,Ezra Taft Benson,1985-11-10 UTC--1994-05-30 UTC,1985-11-10T00:00:00Z,1994-05-30T00:00:00Z
Provo City Center Temple,3,5,1,85084,5.6,29,0,29,NA,5,Attached,Yes,2011-10-01,2012-05-12,2016-03-20,"Provo, Utah, United States",OPERATING,20 March 2016,4012416,provo-city-center-temple,Provo, Utah,United States,"March 20, 2016",NA,40.2337289,-111.6587085,Thomas S. Monson,2008-02-03 UTC--2018-01-02 UTC,2008-02-03T00:00:00Z,2018-01-02T00:00:00Z
Provo Utah Temple,6,12,1,130825,17,57,0,57,NA,1,Attached,Yes,1967-08-14,1969-09-15,1972-02-09,"Provo, Utah, United States",OPERATING,9 February 1972,8,provo-utah-temple,Provo, Utah,United States,"February 9, 1972",NA,40.2337289,-111.6587085,David O. McKay,1951-04-09 UTC--1970-01-18 UTC,1951-04-09T00:00:00Z,1970-01-18T00:00:00Z
Puebla Mexico Temple,4,3,1,30000,6.84,NA,NA,NA,NA,1,Attached,Yes,2018-10-07,2019-11-30,NA,"Puebla, Puebla, Mexico",CONSTRUCTION,Construction,4114416,puebla-mexico-temple,Puebla, Puebla,Mexico,,NA,19.0437196,-98.1981486,Russell M. Nelson,2018-01-14 UTC--2023-07-15 UTC,2018-01-14T00:00:00Z,2023-07-15T00:00:00Z
Querétaro Mexico Temple,2,2,1,27500,3.58,NA,NA,NA,NA,1,Attached,No,2021-04-04,2023-01-07,NA,Location Not Available,ANNOUNCED,Announced,4138359,queretaro-mexico-temple,,,International,,International,NA,NA,Russell M. Nelson,2018-01-14 UTC--2023-07-15 UTC,2018-01-14T00:00:00Z,2023-07-15T00:00:00Z
Quetzaltenango Guatemala Temple,2,2,1,21085,6.47,18,6,24,NA,1,Attached,Yes,2006-12-16,2009-03-14,2011-12-11,"Quetzaltenango, Quezaltenango, Guatemala",OPERATING,11 December 2011,78698,quetzaltenango-guatemala-temple,Quetzaltenango, Quezaltenango,Guatemala,"December 11, 2011",NA,14.8464612,-91.5194208,Gordon B. Hinckley,1995-03-12 UTC--2008-01-27 UTC,1995-03-12T00:00:00Z,2008-01-27T00:00:00Z
Quito Ecuador Temple,2,2,1,36780,3.96,16,1,17,NA,1,Attached,Yes,2016-04-03,2019-05-11,2022-11-20,"Quito, Equador",OPERATING,20 November 2022,4086054,quito-ecuador-temple,Quito,,Equador,"November 20, 2022",NA,-0.2201641,-78.5123274,Thomas S. Monson,2008-02-03 UTC--2018-01-02 UTC,2008-02-03T00:00:00Z,2018-01-02T00:00:00Z
Raleigh North Carolina Temple,2,2,1,12864,3.17,14,0,14,447.6,1,Attached,Yes,1998-09-03,1999-02-06,1999-12-18,"Apex, North Carolina, United States",OPERATING,18 December 1999,36603,raleigh-north-carolina-temple,Apex, North Carolina,United States,"December 18, 1999",NA,35.7325352,-78.8505516,Gordon B. Hinckley,1995-03-12 UTC--2008-01-27 UTC,1995-03-12T00:00:00Z,2008-01-27T00:00:00Z
Recife Brazil Temple,2,3,1,37200,5.59,45,5,50,15,1,Attached,Yes,1995-01-13,1996-11-11,2000-12-15,"Recife, Pernambuco, Brazil",OPERATING,15 December 2000,57,recife-brazil-temple,Recife, Pernambuco,Brazil,"December 15, 2000",NA,-8.0584933,-34.8848193,Howard W. Hunter,1994-06-05 UTC--1995-03-03 UTC,1994-06-05T00:00:00Z,1995-03-03T00:00:00Z
Red Cliffs Utah Temple,4,6,1,96277,15.12,NA,NA,NA,NA,1,Attached,Yes,2018-10-07,2020-11-07,NA,"St. George, Utah, United States",CONSTRUCTION,Construction,4114421,red-cliffs-utah-temple,St. George, Utah,United States,,NA,37.104153,-113.5841313,Russell M. Nelson,2018-01-14 UTC--2023-07-15 UTC,2018-01-14T00:00:00Z,2023-07-15T00:00:00Z
Redlands California Temple,2,3,1,17300,4.6,19,0,19,NA,1,Attached,Yes,2001-04-21,2001-12-01,2003-09-14,"Redlands, California, United States",OPERATING,14 September 2003,45902,redlands-california-temple,Redlands, California,United States,"September 14, 2003",NA,34.0550328,-117.1827445,Gordon B. Hinckley,1995-03-12 UTC--2008-01-27 UTC,1995-03-12T00:00:00Z,2008-01-27T00:00:00Z
Regina Saskatchewan Temple,2,2,1,10700,1,2,0,2,NA,1,Attached,Yes,1998-08-03,1998-11-14,1999-11-14,"Regina, Saskatchewan, Canada",OPERATING,14 November 1999,36567,regina-saskatchewan-temple,Regina, Saskatchewan,Canada,"November 14, 1999",NA,50.44876,-104.61731,Gordon B. Hinckley,1995-03-12 UTC--2008-01-27 UTC,1995-03-12T00:00:00Z,2008-01-27T00:00:00Z
Reno Nevada Temple,2,2,1,10700,7.9,10,0,10,NA,1,Attached,Yes,1999-04-12,1999-07-24,2000-04-23,"Reno, Nevada, United States",OPERATING,23 April 2000,38681,reno-nevada-temple,Reno, Nevada,United States,"April 23, 2000",NA,39.5261206,-119.8126581,Gordon B. Hinckley,1995-03-12 UTC--2008-01-27 UTC,1995-03-12T00:00:00Z,2008-01-27T00:00:00Z
Rexburg Idaho Temple,4,5,1,57504,10,27,0,27,NA,1,Attached,Yes,2003-12-12,2005-07-30,2008-02-10,"Rexburg, Idaho, United States",OPERATING,10 February 2008,72126,rexburg-idaho-temple,Rexburg, Idaho,United States,"February 10, 2008",NA,43.8235163,-111.787022,Gordon B. Hinckley,1995-03-12 UTC--2008-01-27 UTC,1995-03-12T00:00:00Z,2008-01-27T00:00:00Z
Richmond Virginia Temple,4,3,1,39202,12,13,0,13,280.7,1,Attached,Yes,2018-04-01,2020-04-11,2023-05-07,"Glen Allen, Virginia, United States",OPERATING,7 May 2023,4108675,richmond-virginia-temple,Glen Allen, Virginia,United States,"May 7, 2023",NA,37.316934,-90.02781236389168,Russell M. Nelson,2018-01-14 UTC--2023-07-15 UTC,2018-01-14T00:00:00Z,2023-07-15T00:00:00Z
Rio de Janeiro Brazil Temple,2,2,1,29966,9.44,17,3,20,9.4,1,Attached,Yes,2013-04-06,2017-03-04,2022-05-08,"Rio de Janeiro, Brazil",OPERATING,8 May 2022,4028611,rio-de-janeiro-brazil-temple,Rio de Janeiro,,Brazil,"May 8, 2022",NA,-22.9110137,-43.2093727,Thomas S. Monson,2008-02-03 UTC--2018-01-02 UTC,2008-02-03T00:00:00Z,2018-01-02T00:00:00Z
Rome Italy Temple,2,3,1,41010,14.5,11,3,14,167.2,2,Attached,Yes,2008-10-04,2010-10-23,2019-03-10,"Rome, Roma, Italy",OPERATING,10 March 2019,4005415,rome-italy-temple,Rome, Roma,Italy,"March 10, 2019",NA,41.8933203,12.4829321,Thomas S. Monson,2008-02-03 UTC--2018-01-02 UTC,2008-02-03T00:00:00Z,2018-01-02T00:00:00Z
Sacramento California Temple,2,4,1,19500,46,22,0,22,257,1,Attached,Yes,2001-04-21,2004-08-22,2006-09-03,"Rancho Cordova, California, United States",OPERATING,3 September 2006,45901,sacramento-california-temple,Rancho Cordova, California,United States,"September 3, 2006",NA,38.5890723,-121.302728,Gordon B. Hinckley,1995-03-12 UTC--2008-01-27 UTC,1995-03-12T00:00:00Z,2008-01-27T00:00:00Z
Salt Lake Temple,5,23,2,403000,10,60,1,61,NA,6,Attached,Yes,1847-07-28,1853-02-14,1893-04-06,"Salt Lake City, Utah, United States",RENOVATION,Renovation,49,salt-lake-temple,Salt Lake City, Utah,United States,,NA,40.7596198,-111.886797,Brigham Young,1844-06-27 UTC--1877-08-29 UTC,1844-06-27T00:00:00Z,1877-08-29T00:00:00Z
Salta Argentina Temple,2,2,1,NA,17.72,NA,NA,NA,NA,1,Attached,Yes,2018-04-01,2020-11-04,NA,"Salta, Argentina",CONSTRUCTION,Construction,4108670,salta-argentina-temple,Salta,,Argentina,,NA,-24.7892946,-65.4103194,Russell M. Nelson,2018-01-14 UTC--2023-07-15 UTC,2018-01-14T00:00:00Z,2023-07-15T00:00:00Z
Salvador Brazil Temple,2,2,1,31530,4.6,NA,NA,NA,82.8,1,Attached,No,2018-10-07,2021-08-07,NA,"Salvador Bahia, Brazil",CONSTRUCTION,Construction,4114411,salvador-brazil-temple,Salvador Bahia,,Brazil,,NA,NA,NA,Russell M. Nelson,2018-01-14 UTC--2023-07-15 UTC,2018-01-14T00:00:00Z,2023-07-15T00:00:00Z
San Antonio Texas Temple,2,2,1,16800,5.5,21,1,22,NA,1,Attached,Yes,2001-06-24,2003-03-29,2005-05-22,"San Antonio, Texas, United States",OPERATING,22 May 2005,46179,san-antonio-texas-temple,San Antonio, Texas,United States,"May 22, 2005",NA,29.4246002,-98.4951405,Gordon B. Hinckley,1995-03-12 UTC--2008-01-27 UTC,1995-03-12T00:00:00Z,2008-01-27T00:00:00Z
San Diego California Temple,4,8,1,72000,7.2,16,0,16,338.3,10,Attached,Yes,1984-04-07,1988-02-27,1993-04-25,"San Diego, California, United States",OPERATING,25 April 1993,64,san-diego-california-temple,San Diego, California,United States,"April 25, 1993",NA,32.7174202,-117.1627728,Spencer W. Kimball,1973-12-30 UTC--1985-11-05 UTC,1973-12-30T00:00:00Z,1985-11-05T00:00:00Z
San José Costa Rica Temple,2,2,1,10700,1.93,10,1,11,NA,1,Attached,Yes,1999-03-17,1999-04-24,2000-06-04,"Belén, Heredia, Costa Rica",OPERATING,4 June 2000,38398,san-jose-costa-rica-temple,Belén, Heredia,Costa Rica,"June 4, 2000",NA,10.0299077,-85.5033043,Gordon B. Hinckley,1995-03-12 UTC--2008-01-27 UTC,1995-03-12T00:00:00Z,2008-01-27T00:00:00Z
San Juan Puerto Rico Temple,1,1,1,6988,2.97,5,1,6,223.2,1,Attached,No,2018-10-07,2019-05-04,2023-01-15,"San Juan, Puerto Rico",OPERATING,15 January 2023,4114420,san-juan-puerto-rico-temple,San Juan,,Puerto Rico,"January 15, 2023",NA,NA,NA,Russell M. Nelson,2018-01-14 UTC--2023-07-15 UTC,2018-01-14T00:00:00Z,2023-07-15T00:00:00Z
San Pedro Sula Honduras Temple,4,3,1,30000,9.03,NA,NA,NA,324,1,Attached,No,2019-04-07,2020-09-05,NA,"San Pedro Sula, Honduras",CONSTRUCTION,Construction,4119595,san-pedro-sula-honduras-temple,San Pedro Sula,,Honduras,,NA,15.5062156,-88.0248937,Russell M. Nelson,2018-01-14 UTC--2023-07-15 UTC,2018-01-14T00:00:00Z,2023-07-15T00:00:00Z
San Salvador El Salvador Temple,2,2,1,27986,6.5,22,0,22,NA,1,Attached,Yes,2007-11-18,2008-09-20,2011-08-21,"Antiguo Cuscatlán, La Libertad, El Salvador",OPERATING,21 August 2011,4004669,san-salvador-el-salvador-temple,Antiguo Cuscatlán, La Libertad,El Salvador,"August 21, 2011",NA,13.670259999999999,-89.24631832742003,Gordon B. Hinckley,1995-03-12 UTC--2008-01-27 UTC,1995-03-12T00:00:00Z,2008-01-27T00:00:00Z
Santiago Chile Temple,2,3,1,20831,2.61,50,7,57,NA,1,Attached,Yes,1980-04-02,1981-05-30,1983-09-15,"Providencia, Santiago, Chile",OPERATING,15 September 1983,50,santiago-chile-temple,Providencia, Santiago,Chile,"September 15, 1983",NA,-33.4288379,-70.61133725589745,Spencer W. Kimball,1973-12-30 UTC--1985-11-05 UTC,1973-12-30T00:00:00Z,1985-11-05T00:00:00Z
Santo Domingo Dominican Republic Temple,4,4,1,67000,6.42,23,13,36,132.5,1,Attached,Yes,1993-11-16,1996-08-18,2000-09-17,"Santo Domingo, Distrito Nacional, Dominican Republic",OPERATING,17 September 2000,65,santo-domingo-dominican-republic-temple,Santo Domingo, Distrito Nacional,Dominican Republic,"September 17, 2000",NA,18.4801972,-69.942111,Ezra Taft Benson,1985-11-10 UTC--1994-05-30 UTC,1985-11-10T00:00:00Z,1994-05-30T00:00:00Z
São Paulo Brazil Temple,2,4,1,59246,1.85,47,0,47,NA,1,Attached,Yes,1975-03-01,1976-03-20,1978-10-30,"São Paulo, Sao Paulo, Brazil",OPERATING,30 October 1978,11,sao-paulo-brazil-temple,São Paulo, Sao Paulo,Brazil,"October 30, 1978",NA,-23.5506507,-46.6333824,Spencer W. Kimball,1973-12-30 UTC--1985-11-05 UTC,1973-12-30T00:00:00Z,1985-11-05T00:00:00Z
Sapporo Japan Temple,2,3,1,48480,9.8,2,2,4,65,5,Attached,Yes,2009-10-03,2011-10-22,2016-08-21,"Atsubetsu-ku Sapporo, Hokkaido, Japan",OPERATING,21 August 2016,4007350,sapporo-japan-temple,Atsubetsu-ku Sapporo, Hokkaido,Japan,"August 21, 2016",NA,NA,NA,Thomas S. Monson,2008-02-03 UTC--2018-01-02 UTC,2008-02-03T00:00:00Z,2018-01-02T00:00:00Z
Saratoga Springs Utah Temple,4,6,1,97836,22.71,NA,NA,NA,NA,1,Attached,Yes,2017-04-02,2019-10-19,2023-08-13,"Saratoga Springs, Utah, United States",CONSTRUCTION,Construction,4098475,saratoga-springs-utah-temple,Saratoga Springs, Utah,United States,,NA,43.0821793,-73.7853915,Thomas S. Monson,2008-02-03 UTC--2018-01-02 UTC,2008-02-03T00:00:00Z,2018-01-02T00:00:00Z
Seattle Washington Temple,4,13,1,110000,23.5,31,0,31,412.7,1,Attached,Yes,1975-11-15,1978-05-27,1980-11-17,"Bellevue, Washington, United States",OPERATING,17 November 1980,48,seattle-washington-temple,Bellevue, Washington,United States,"November 17, 1980",NA,47.6144219,-122.192337,Spencer W. Kimball,1973-12-30 UTC--1985-11-05 UTC,1973-12-30T00:00:00Z,1985-11-05T00:00:00Z
Seoul Korea Temple,4,3,1,28057,1,12,5,17,83.3,6,Detached,Yes,1981-04-01,1983-05-09,1985-12-14,"Seoul, Seoul-teukbyeolsi, South Korea",OPERATING,14 December 1985,51,seoul-korea-temple,Seoul, Seoul-teukbyeolsi,South Korea,"December 14, 1985",NA,37.5666791,126.9782914,Spencer W. Kimball,1973-12-30 UTC--1985-11-05 UTC,1973-12-30T00:00:00Z,1985-11-05T00:00:00Z
Smithfield Utah Temple,4,4,2,81000,13.3,NA,NA,NA,NA,2,Attached,No,2021-04-04,2022-06-18,NA,Location Not Available,CONSTRUCTION,Construction,4138369,smithfield-utah-temple,,,United States,,United States,39.7837304,-100.445882,Russell M. Nelson,2018-01-14 UTC--2023-07-15 UTC,2018-01-14T00:00:00Z,2023-07-15T00:00:00Z
Snowflake Arizona Temple,2,2,1,18621,7.5,14,0,14,NA,1,Attached,Yes,2000-04-02,2000-09-23,2002-03-03,"Snowflake, Arizona, United States",OPERATING,3 March 2002,43206,snowflake-arizona-temple,Snowflake, Arizona,United States,"March 3, 2002",NA,34.5114704,-110.079608,Gordon B. Hinckley,1995-03-12 UTC--2008-01-27 UTC,1995-03-12T00:00:00Z,2008-01-27T00:00:00Z
Spokane Washington Temple,2,2,1,10700,2,16,0,16,NA,1,Attached,Yes,1998-08-13,1998-10-10,1999-08-21,"Spokane, Washington, United States",OPERATING,21 August 1999,36582,spokane-washington-temple,Spokane, Washington,United States,"August 21, 1999",NA,47.6571934,-117.42351,Gordon B. Hinckley,1995-03-12 UTC--2008-01-27 UTC,1995-03-12T00:00:00Z,2008-01-27T00:00:00Z
St. George Utah Temple,3,18,1,142000,6,37,0,37,NA,1,Attached,No,1871-01-31,1871-11-09,1877-04-06,"St. George, Utah, United States",RENOVATION,Renovation,10,st.-george-utah-temple,St. George, Utah,United States,,NA,37.104153,-113.5841313,Brigham Young,1844-06-27 UTC--1877-08-29 UTC,1844-06-27T00:00:00Z,1877-08-29T00:00:00Z
St. Louis Missouri Temple,4,4,1,58749,14,10,0,10,581.8,1,Attached,Yes,1990-12-29,1993-10-30,1997-06-01,"St. Louis, Missouri, United States",OPERATING,1 June 1997,20,st.-louis-missouri-temple,St. Louis, Missouri,United States,"June 1, 1997",NA,38.6280278,-90.1910154,Ezra Taft Benson,1985-11-10 UTC--1994-05-30 UTC,1985-11-10T00:00:00Z,1994-05-30T00:00:00Z
St. Paul Minnesota Temple,2,2,1,10700,7.5,9,0,9,NA,1,Attached,Yes,1998-07-29,1998-09-26,2000-01-09,"Oakdale, Minnesota, United States",OPERATING,9 January 2000,36568,st.-paul-minnesota-temple,Oakdale, Minnesota,United States,"January 9, 2000",NA,44.985624,-92.9645794,Gordon B. Hinckley,1995-03-12 UTC--2008-01-27 UTC,1995-03-12T00:00:00Z,2008-01-27T00:00:00Z
Star Valley Wyoming Temple,1,1,1,18609,43.6,5,0,5,NA,1,Attached,Yes,2011-10-01,2015-04-25,2016-10-30,"Afton, Wyoming, United States",OPERATING,30 October 2016,4012421,star-valley-wyoming-temple,Afton, Wyoming,United States,"October 30, 2016",NA,44.9027452,-92.7835373,Thomas S. Monson,2008-02-03 UTC--2018-01-02 UTC,2008-02-03T00:00:00Z,2018-01-02T00:00:00Z
Stockholm Sweden Temple,4,3,1,16366,4.47,5,2,7,138.3,6,Detached,Yes,1981-04-01,1984-03-17,1985-07-02,"Vasterhaninge, Sweden",RENOVATION,Renovation,66,stockholm-sweden-temple,Vasterhaninge,,Sweden,,NA,59.1221593,18.1085969,Spencer W. Kimball,1973-12-30 UTC--1985-11-05 UTC,1973-12-30T00:00:00Z,1985-11-05T00:00:00Z
Suva Fiji Temple,2,2,1,12755,4.7,9,20,29,308.3,1,Attached,Yes,1998-05-07,1999-05-08,2000-06-18,"Samabula, Suva, Fiji",OPERATING,18 June 2000,36569,suva-fiji-temple,Samabula, Suva,Fiji,"June 18, 2000",NA,-18.1173104,178.4426504,Gordon B. Hinckley,1995-03-12 UTC--2008-01-27 UTC,1995-03-12T00:00:00Z,2008-01-27T00:00:00Z
Sydney Australia Temple,2,3,1,30677,3,11,2,13,418.2,1,Attached,Yes,1980-04-02,1982-08-13,1984-09-20,"Carlingford, New South Wales, Australia",OPERATING,20 September 1984,9,sydney-australia-temple,Carlingford, New South Wales,Australia,"September 20, 1984",NA,-33.7744947,151.0475215,Spencer W. Kimball,1973-12-30 UTC--1985-11-05 UTC,1973-12-30T00:00:00Z,1985-11-05T00:00:00Z
Syracuse Utah Temple,4,4,2,88886,12.27,NA,NA,NA,NA,1,Attached,No,2020-04-05,2021-06-12,NA,"Syracuse, Utah, United States",CONSTRUCTION,Construction,4130690,syracuse-utah-temple,Syracuse, Utah,United States,,NA,43.0481221,-76.1474244,Russell M. Nelson,2018-01-14 UTC--2023-07-15 UTC,2018-01-14T00:00:00Z,2023-07-15T00:00:00Z
Taipei Taiwan Temple,4,3,1,9945,0.5,16,0,16,16,6,Detached,Yes,1982-03-31,1982-08-27,1984-11-17,"Taipei, Taipei, Taiwan",OPERATING,17 November 1984,53,taipei-taiwan-temple,Taipei, Taipei,Taiwan,"November 17, 1984",NA,25.0375198,121.5636796,Spencer W. Kimball,1973-12-30 UTC--1985-11-05 UTC,1973-12-30T00:00:00Z,1985-11-05T00:00:00Z
Tallahassee Florida Temple,2,2,1,29000,4.97,NA,NA,NA,204.4,1,Attached,No,2020-04-05,2021-06-05,NA,"Tallahassee, Florida, United States",CONSTRUCTION,Construction,4130711,tallahassee-florida-temple,Tallahassee, Florida,United States,,NA,30.4380832,-84.2809332,Russell M. Nelson,2018-01-14 UTC--2023-07-15 UTC,2018-01-14T00:00:00Z,2023-07-15T00:00:00Z
Tampico Mexico Temple,2,2,1,10700,2.96,11,2,13,73,1,Attached,Yes,1998-07-08,1998-11-28,2000-05-20,"Ciudad Madero, Tamaulipas, Mexico",OPERATING,20 May 2000,36570,tampico-mexico-temple,Ciudad Madero, Tamaulipas,Mexico,"May 20, 2000",NA,22.2646707,-97.8397091,Gordon B. Hinckley,1995-03-12 UTC--2008-01-27 UTC,1995-03-12T00:00:00Z,2008-01-27T00:00:00Z
Taylorsville Utah Temple,4,4,1,70460,7.5,NA,NA,NA,NA,1,Attached,No,2019-10-05,2020-10-31,NA,"Taylorsville, Utah, United States",CONSTRUCTION,Construction,4124797,taylorsville-utah-temple,Taylorsville, Utah,United States,,NA,40.6676347,-111.9388027,Russell M. Nelson,2018-01-14 UTC--2023-07-15 UTC,2018-01-14T00:00:00Z,2023-07-15T00:00:00Z
Tegucigalpa Honduras Temple,2,2,1,28254,13.6,43,9,52,NA,1,Attached,Yes,2006-06-09,2009-09-12,2013-03-17,"Comayagüela, Francisco Morazán, Honduras",OPERATING,17 March 2013,77556,tegucigalpa-honduras-temple,Comayagüela, Francisco Morazán,Honduras,"March 17, 2013",NA,14.0980079,-87.2099671,Gordon B. Hinckley,1995-03-12 UTC--2008-01-27 UTC,1995-03-12T00:00:00Z,2008-01-27T00:00:00Z
The Gila Valley Arizona Temple,2,2,1,18561,17,6,0,6,NA,1,Attached,Yes,2008-04-26,2009-02-14,2010-05-23,"Central, Arizona, United States",OPERATING,23 May 2010,4004670,the-gila-valley-arizona-temple,Central, Arizona,United States,"May 23, 2010",NA,37.4166454,-113.6244052,Thomas S. Monson,2008-02-03 UTC--2018-01-02 UTC,2008-02-03T00:00:00Z,2018-01-02T00:00:00Z
The Hague Netherlands Temple,2,2,1,10500,2.7,4,0,4,-3.5,1,Attached,Yes,1999-08-16,2000-08-26,2002-09-08,"Zoetermeer, Zuid-Holland, Netherlands",OPERATING,8 September 2002,40705,the-hague-netherlands-temple,Zoetermeer, Zuid-Holland,Netherlands,"September 8, 2002",NA,52.06228915,4.487754536970652,Gordon B. Hinckley,1995-03-12 UTC--2008-01-27 UTC,1995-03-12T00:00:00Z,2008-01-27T00:00:00Z
Tijuana Mexico Temple,2,2,1,33367,9.4,10,0,10,172.4,1,Attached,Yes,2010-10-02,2012-08-18,2015-12-13,"Tijuana, Baja California, Mexico",OPERATING,13 December 2015,4009693,tijuana-mexico-temple,Tijuana, Baja California,Mexico,"December 13, 2015",NA,32.5317397,-117.0195295,Thomas S. Monson,2008-02-03 UTC--2018-01-02 UTC,2008-02-03T00:00:00Z,2018-01-02T00:00:00Z
Tokyo Japan Temple,2,5,1,53997,1.22,16,4,20,80.9,1,Attached,Yes,1975-08-09,1978-04-10,1980-10-27,"Minato-ku, Tokyo, Japan",OPERATING,27 October 1980,15,tokyo-japan-temple,Minato-ku, Tokyo,Japan,"October 27, 1980",NA,35.6432274,139.7400553,Spencer W. Kimball,1973-12-30 UTC--1985-11-05 UTC,1973-12-30T00:00:00Z,1985-11-05T00:00:00Z
Toronto Ontario Temple,4,6,1,57982,13.4,8,1,9,797.8,1,Attached,Yes,1984-04-07,1987-10-10,1990-08-25,"Brampton, Ontario, Canada",OPERATING,25 August 1990,67,toronto-ontario-temple,Brampton, Ontario,Canada,"August 25, 1990",NA,43.685832,-79.7599366,Spencer W. Kimball,1973-12-30 UTC--1985-11-05 UTC,1973-12-30T00:00:00Z,1985-11-05T00:00:00Z
Torreón Mexico Temple,1,1,1,10000,0.89,NA,NA,NA,NA,1,Attached,No,2021-04-04,2022-12-10,NA,Location Not Available,ANNOUNCED,Announced,4138360,torreon-mexico-temple,,,International,,International,NA,NA,Russell M. Nelson,2018-01-14 UTC--2023-07-15 UTC,2018-01-14T00:00:00Z,2023-07-15T00:00:00Z
Trujillo Peru Temple,2,2,1,28200,8.9,29,6,35,126.2,1,Attached,Yes,2008-12-13,2011-09-14,2015-06-21,"Trujillo, La Libertad, Peru",OPERATING,21 June 2015,4005658,trujillo-peru-temple,Trujillo, La Libertad,Peru,"June 21, 2015",NA,-8.1116778,-79.0287742,Thomas S. Monson,2008-02-03 UTC--2018-01-02 UTC,2008-02-03T00:00:00Z,2018-01-02T00:00:00Z
Tucson Arizona Temple,2,2,1,38216,7,9,0,9,NA,1,Attached,Yes,2012-10-06,2015-10-17,2017-08-13,"Tucson, Arizona, United States",OPERATING,13 August 2017,4017571,tucson-arizona-temple,Tucson, Arizona,United States,"August 13, 2017",NA,32.2228765,-110.9748477,Thomas S. Monson,2008-02-03 UTC--2018-01-02 UTC,2008-02-03T00:00:00Z,2018-01-02T00:00:00Z
Tuxtla Gutiérrez Mexico Temple,2,2,1,10700,1.56,7,6,13,NA,1,Attached,Yes,1999-02-25,1999-03-20,2000-03-12,"Tuxtla Gutiérrez, Chiapas, Mexico",OPERATING,12 March 2000,37916,tuxtla-gutierrez-mexico-temple,Tuxtla Gutiérrez, Chiapas,Mexico,"March 12, 2000",NA,16.753801,-93.115959,Gordon B. Hinckley,1995-03-12 UTC--2008-01-27 UTC,1995-03-12T00:00:00Z,2008-01-27T00:00:00Z
Twin Falls Idaho Temple,2,3,1,31245,9.1,16,0,16,NA,1,Attached,Yes,2004-10-02,2006-04-15,2008-08-24,"Twin Falls, Idaho, United States",OPERATING,24 August 2008,75531,twin-falls-idaho-temple,Twin Falls, Idaho,United States,"August 24, 2008",NA,42.5704456,-114.4602554,Gordon B. Hinckley,1995-03-12 UTC--2008-01-27 UTC,1995-03-12T00:00:00Z,2008-01-27T00:00:00Z
Urdaneta Philippines Temple,2,3,1,NA,15.26,NA,NA,NA,93.4,1,Attached,Yes,2010-10-02,2019-01-16,NA,"Urdaneta, Pangasinan, Philippines",CONSTRUCTION,Construction,4009691,urdaneta-philippines-temple,Urdaneta, Pangasinan,Philippines,,NA,15.9759995,120.5668992,Thomas S. Monson,2008-02-03 UTC--2018-01-02 UTC,2008-02-03T00:00:00Z,2018-01-02T00:00:00Z
Vancouver British Columbia Temple,2,2,1,28165,11.6,8,1,9,251.4,1,Attached,Yes,2006-05-25,2007-08-04,2010-05-02,"Langley, British Columbia, Canada",OPERATING,2 May 2010,4007091,vancouver-british-columbia-temple,Langley, British Columbia,Canada,"May 2, 2010",NA,49.1039289,-122.657047,Gordon B. Hinckley,1995-03-12 UTC--2008-01-27 UTC,1995-03-12T00:00:00Z,2008-01-27T00:00:00Z
Veracruz Mexico Temple,2,2,1,10700,3.39,13,1,14,48.6,1,Attached,Yes,1999-04-14,1999-05-29,2000-07-09,"Boca del Rio, Veracruz, Mexico",OPERATING,9 July 2000,38680,veracruz-mexico-temple,Boca del Rio, Veracruz,Mexico,"July 9, 2000",NA,27.450836,-106.2151404,Gordon B. Hinckley,1995-03-12 UTC--2008-01-27 UTC,1995-03-12T00:00:00Z,2008-01-27T00:00:00Z
Vernal Utah Temple,2,3,1,38771,1.6,14,0,14,NA,2,Attached,Yes,1994-02-13,1995-05-13,1997-11-02,"Vernal, Utah, United States",OPERATING,2 November 1997,16,vernal-utah-temple,Vernal, Utah,United States,"November 2, 1997",NA,40.4556825,-109.528474,Ezra Taft Benson,1985-11-10 UTC--1994-05-30 UTC,1985-11-10T00:00:00Z,1994-05-30T00:00:00Z
Villahermosa Mexico Temple,2,2,1,10700,1.36,6,3,9,62.1,1,Attached,Yes,1998-10-30,1999-01-09,2000-05-21,"Villahermosa, Tabasco, Mexico",OPERATING,21 May 2000,36991,villahermosa-mexico-temple,Villahermosa, Tabasco,Mexico,"May 21, 2000",NA,18.0018152,-92.9330401483751,Gordon B. Hinckley,1995-03-12 UTC--2008-01-27 UTC,1995-03-12T00:00:00Z,2008-01-27T00:00:00Z
Washington D.C. Temple,6,10,1,156558,52,25,0,25,289.4,6,Attached,Yes,1968-11-15,1968-12-07,1974-11-19,"Kensington, Maryland, United States",OPERATING,19 November 1974,54,washington-d.c.-temple,Kensington, Maryland,United States,"November 19, 1974",NA,45.778015,-95.696159,David O. McKay,1951-04-09 UTC--1970-01-18 UTC,1951-04-09T00:00:00Z,1970-01-18T00:00:00Z
Willamette Valley Oregon Temple,2,2,1,30000,10.5,NA,NA,NA,429.4,1,Attached,No,2021-04-04,2022-10-29,NA,Location Not Available,ANNOUNCED,Announced,4138366,willamette-valley-oregon-temple,,,United States,,United States,39.7837304,-100.445882,Russell M. Nelson,2018-01-14 UTC--2023-07-15 UTC,2018-01-14T00:00:00Z,2023-07-15T00:00:00Z
Winnipeg Manitoba Temple,1,1,1,16100,7.7,2,0,2,766.2,1,Attached,Yes,2011-04-02,2016-12-03,2021-10-31,"Winnipeg, Manitoba, Canada",OPERATING,31 October 2021,4010937,winnipeg-manitoba-temple,Winnipeg, Manitoba,Canada,"October 31, 2021",NA,49.8955367,-97.1384584,Thomas S. Monson,2008-02-03 UTC--2018-01-02 UTC,2008-02-03T00:00:00Z,2018-01-02T00:00:00Z
Winter Quarters Nebraska Temple,2,2,1,16000,1.92,11,0,11,NA,1,Attached,Yes,1999-06-14,1999-11-28,2001-04-22,"Omaha, Nebraska, United States",OPERATING,22 April 2001,40202,winter-quarters-nebraska-temple,Omaha, Nebraska,United States,"April 22, 2001",NA,41.2587459,-95.9383758,Gordon B. Hinckley,1995-03-12 UTC--2008-01-27 UTC,1995-03-12T00:00:00Z,2008-01-27T00:00:00Z
Yigo Guam Temple,1,1,1,6861,5.8,2,1,3,487.1,1,Attached,No,2018-10-07,2019-05-04,2022-05-22,"Yigo, Guam",OPERATING,22 May 2022,4114415,yigo-guam-temple,Yigo,,Guam,"May 22, 2022",NA,NA,NA,Russell M. Nelson,2018-01-14 UTC--2023-07-15 UTC,2018-01-14T00:00:00Z,2023-07-15T00:00:00Z
Yorba Linda California Temple,2,2,1,30872,5.46,NA,NA,NA,361.8,1,Attached,No,2021-04-04,2022-06-18,NA,Location Not Available,CONSTRUCTION,Construction,4138368,yorba-linda-california-temple,,,United States,,United States,39.7837304,-100.445882,Russell M. Nelson,2018-01-14 UTC--2023-07-15 UTC,2018-01-14T00:00:00Z,2023-07-15T00:00:00Z
